OBJECTID,STATE,NAME,LAT,LON,Date01Start,Date50Start,Date100Start,Dat50End,Date01End,Duration,x,y
1,AR,Fairfield Bay,35.601101,-92.266208,4/9/24 0:13,4/8/24 17:20,4/8/24 17:51,4/8/24 17:56,4/8/24 18:27,240,-92.266208,35.601101
2,AR,Fifty-Six,35.96351,-92.233355,4/9/24 0:13,4/8/24 17:20,4/8/24 17:52,4/8/24 17:56,4/8/24 18:28,240,-92.233355,35.96351
3,AR,Fisher,35.491424,-90.972494,4/9/24 0:13,4/8/24 17:22,4/8/24 17:55,4/8/24 17:56,4/8/24 18:29,30,-90.972494,35.491424
4,AR,Flippin,36.27732,-92.59353,4/9/24 0:13,4/8/24 17:20,4/8/24 17:52,4/8/24 17:55,4/8/24 18:28,150,-92.59353,36.27732
5,AR,Floral,35.588939,-91.758932,4/9/24 0:13,4/8/24 17:21,4/8/24 17:52,4/8/24 17:56,4/8/24 18:28,210,-91.758932,35.588939
6,AR,Floyd,35.198879,-91.96453,4/9/24 0:13,4/8/24 17:20,4/8/24 17:52,4/8/24 17:55,4/8/24 18:27,180,-91.96453,35.198879
7,AR,Foreman,33.719494,-94.397668,4/9/24 0:13,4/8/24 17:14,4/8/24 17:45,4/8/24 17:50,4/8/24 18:22,240,-94.397668,33.719494
8,AR,Fountain Lake,34.609848,-92.919774,4/9/24 0:13,4/8/24 17:17,4/8/24 17:49,4/8/24 17:53,4/8/24 18:25,210,-92.919774,34.609848
9,AR,Fourche,34.993128,-92.618944,4/9/24 0:13,4/8/24 17:18,4/8/24 17:50,4/8/24 17:54,4/8/24 18:26,210,-92.618944,34.993128
10,AR,Fox,35.784398,-92.299626,4/9/24 0:13,4/8/24 17:20,4/8/24 17:52,4/8/24 17:56,4/8/24 18:28,240,-92.299626,35.784398
11,AR,Franklin,36.1727,-91.769724,4/9/24 0:13,4/8/24 17:21,4/8/24 17:53,4/8/24 17:57,4/8/24 18:29,240,-91.769724,36.1727
12,AR,Friendship,34.224344,-93.00366,4/9/24 0:13,4/8/24 17:17,4/8/24 17:49,4/8/24 17:52,4/8/24 18:25,150,-93.00366,34.224344
13,AR,Fulton,33.612565,-93.813795,4/9/24 0:13,4/8/24 17:14,4/8/24 17:47,4/8/24 17:50,4/8/24 18:23,150,-93.813795,33.612565
14,AR,Gamaliel,36.45189,-92.236928,4/9/24 0:13,4/8/24 17:21,4/8/24 17:53,4/8/24 17:56,4/8/24 18:28,180,-92.236928,36.45189
15,AR,Garner,35.142496,-91.779184,4/9/24 0:13,4/8/24 17:20,4/8/24 17:52,4/8/24 17:55,4/8/24 18:28,150,-91.779184,35.142496
16,AR,Gassville,36.284949,-92.48683,4/9/24 0:13,4/8/24 17:21,4/8/24 17:52,4/8/24 17:56,4/8/24 18:28,180,-92.48683,36.284949
17,AR,Genoa,33.377487,-93.882415,4/9/24 0:13,4/8/24 17:14,4/8/24 17:47,4/8/24 17:48,4/8/24 18:22,30,-93.882415,33.377487
18,AR,Gibson,34.902228,-92.240817,4/9/24 0:13,4/8/24 17:19,4/8/24 17:51,4/8/24 17:54,4/8/24 18:27,180,-92.240817,34.902228
19,AR,Gilbert,35.990981,-92.716181,4/9/24 0:13,4/8/24 17:20,4/8/24 17:52,4/8/24 17:55,4/8/24 18:27,180,-92.716181,35.990981
20,AR,Gillham,34.168628,-94.312977,4/9/24 0:13,4/8/24 17:14,4/8/24 17:46,4/8/24 17:50,4/8/24 18:22,240,-94.312977,34.168628
21,AR,Glenwood,34.328314,-93.527255,4/9/24 0:13,4/8/24 17:16,4/8/24 17:48,4/8/24 17:52,4/8/24 18:24,210,-93.527255,34.328314
22,AR,Grannis,34.240165,-94.321995,4/9/24 0:13,4/8/24 17:15,4/8/24 17:46,4/8/24 17:51,4/8/24 18:23,240,-94.321995,34.240165
23,AR,Greenbrier,35.228843,-92.383568,4/9/24 0:13,4/8/24 17:19,4/8/24 17:51,4/8/24 17:55,4/8/24 18:27,240,-92.383568,35.228843
24,AR,Greenway,36.340577,-90.222124,4/9/24 0:13,4/8/24 17:24,4/8/24 17:56,4/8/24 17:59,4/8/24 18:31,180,-90.222124,36.340577
25,AR,Greenwood,35.226857,-94.276391,4/9/24 0:13,4/8/24 17:16,4/8/24 17:49,4/8/24 17:51,4/8/24 18:24,120,-94.276391,35.226857
26,AR,Greers Ferry,35.574966,-92.165959,4/9/24 0:13,4/8/24 17:20,4/8/24 17:52,4/8/24 17:56,4/8/24 18:27,240,-92.165959,35.574966
27,AR,Griffithville,35.123053,-91.64497,4/9/24 0:13,4/8/24 17:20,4/8/24 17:53,4/8/24 17:55,4/8/24 18:28,120,-91.64497,35.123053
28,AR,Grubbs,35.653999,-91.075464,4/9/24 0:13,4/8/24 17:22,4/8/24 17:54,4/8/24 17:57,4/8/24 18:29,150,-91.075464,35.653999
29,AR,Guion,35.926834,-91.938927,4/9/24 0:13,4/8/24 17:21,4/8/24 17:52,4/8/24 17:57,4/8/24 18:28,240,-91.938927,35.926834
30,AR,Gum Springs,34.063937,-93.095709,4/9/24 0:13,4/8/24 17:16,4/8/24 17:49,4/8/24 17:51,4/8/24 18:24,90,-93.095709,34.063937
31,AR,Gurdon,33.916032,-93.15391,4/9/24 0:13,4/8/24 17:16,4/8/24 17:49,4/8/24 17:50,4/8/24 18:24,30,-93.15391,33.916032
32,AR,Guy,35.327322,-92.336661,4/9/24 0:13,4/8/24 17:19,4/8/24 17:51,4/8/24 17:55,4/8/24 18:27,240,-92.336661,35.327322
33,AR,Hackett,35.188027,-94.410341,4/9/24 0:13,4/8/24 17:16,4/8/24 17:49,4/8/24 17:50,4/8/24 18:23,90,-94.410341,35.188027
34,AR,Hagarville,35.515017,-93.332135,4/9/24 0:13,4/8/24 17:18,4/8/24 17:50,4/8/24 17:53,4/8/24 18:26,210,-93.332135,35.515017
35,AR,Hardy,36.319645,-91.481503,4/9/24 0:13,4/8/24 17:22,4/8/24 17:54,4/8/24 17:58,4/8/24 18:29,240,-91.481503,36.319645
36,AR,Hartford,35.023433,-94.379406,4/9/24 0:13,4/8/24 17:16,4/8/24 17:48,4/8/24 17:51,4/8/24 18:23,150,-94.379406,35.023433
37,AR,Hartman,35.43525,-93.628245,4/9/24 0:13,4/8/24 17:17,4/8/24 17:49,4/8/24 17:53,4/8/24 18:25,180,-93.628245,35.43525
38,AR,Haskell,34.509238,-92.641861,4/9/24 0:13,4/8/24 17:18,4/8/24 17:50,4/8/24 17:53,4/8/24 18:25,150,-92.641861,34.509238
39,AR,Hatfield,34.484507,-94.37991,4/9/24 0:13,4/8/24 17:15,4/8/24 17:47,4/8/24 17:51,4/8/24 18:23,240,-94.37991,34.484507
40,AR,Hattieville,35.295226,-92.775351,4/9/24 0:13,4/8/24 17:19,4/8/24 17:50,4/8/24 17:54,4/8/24 18:26,240,-92.775351,35.295226
41,AR,Havana,35.109809,-93.526022,4/9/24 0:13,4/8/24 17:17,4/8/24 17:49,4/8/24 17:53,4/8/24 18:25,240,-93.526022,35.109809
42,AR,Heber Springs,35.499554,-92.029339,4/9/24 0:13,4/8/24 17:20,4/8/24 17:52,4/8/24 17:56,4/8/24 18:28,240,-92.029339,35.499554
43,AR,Hector,35.462913,-92.97913,4/9/24 0:13,4/8/24 17:19,4/8/24 17:50,4/8/24 17:54,4/8/24 18:26,240,-92.97913,35.462913
44,AR,Henderson,36.377214,-92.218918,4/9/24 0:13,4/8/24 17:21,4/8/24 17:53,4/8/24 17:56,4/8/24 18:28,180,-92.218918,36.377214
45,AR,Higden,35.566406,-92.20518,4/9/24 0:13,4/8/24 17:20,4/8/24 17:51,4/8/24 17:56,4/8/24 18:27,240,-92.20518,35.566406
46,AR,Higginson,35.196813,-91.715175,4/9/24 0:13,4/8/24 17:20,4/8/24 17:52,4/8/24 17:55,4/8/24 18:28,150,-91.715175,35.196813
47,AR,Highland,36.26943,-91.519824,4/9/24 0:13,4/8/24 17:22,4/8/24 17:53,4/8/24 17:58,4/8/24 18:29,240,-91.519824,36.26943
48,AR,Holland,35.166012,-92.277049,4/9/24 0:13,4/8/24 17:19,4/8/24 17:51,4/8/24 17:55,4/8/24 18:27,210,-92.277049,35.166012
49,AR,Hope,33.668164,-93.588885,4/9/24 0:13,4/8/24 17:15,4/8/24 17:48,4/8/24 17:50,4/8/24 18:23,90,-93.588885,33.668164
50,AR,Horatio,33.942739,-94.356201,4/9/24 0:13,4/8/24 17:14,4/8/24 17:46,4/8/24 17:50,4/8/24 18:22,240,-94.356201,33.942739
51,AR,Horseshoe Bend,36.218726,-91.738324,4/9/24 0:13,4/8/24 17:22,4/8/24 17:53,4/8/24 17:57,4/8/24 18:29,240,-91.738324,36.218726
52,AR,Hot Springs,34.489442,-93.050254,4/9/24 0:13,4/8/24 17:17,4/8/24 17:49,4/8/24 17:53,4/8/24 18:25,210,-93.050254,34.489442
53,AR,Hot Springs Village,34.658069,-92.968643,4/9/24 0:13,4/8/24 17:17,4/8/24 17:49,4/8/24 17:53,4/8/24 18:25,210,-92.968643,34.658069
54,AR,Houston,35.034879,-92.694525,4/9/24 0:13,4/8/24 17:18,4/8/24 17:50,4/8/24 17:54,4/8/24 18:26,240,-92.694525,35.034879
55,AR,Hoxie,36.036041,-90.973588,4/9/24 0:13,4/8/24 17:23,4/8/24 17:54,4/8/24 17:58,4/8/24 18:30,210,-90.973588,36.036041
56,AR,Moorefield,35.767228,-91.570807,4/9/24 0:13,4/8/24 17:21,4/8/24 17:53,4/8/24 17:57,4/8/24 18:29,210,-91.570807,35.767228
57,AR,Morrilton,35.155456,-92.738932,4/9/24 0:13,4/8/24 17:18,4/8/24 17:50,4/8/24 17:54,4/8/24 18:26,240,-92.738932,35.155456
58,AR,Morrison Bluff,35.381952,-93.518854,4/9/24 0:13,4/8/24 17:18,4/8/24 17:49,4/8/24 17:53,4/8/24 18:25,210,-93.518854,35.381952
59,AR,Mountain Home,36.335118,-92.384039,4/9/24 0:13,4/8/24 17:21,4/8/24 17:53,4/8/24 17:56,4/8/24 18:28,180,-92.384039,36.335118
60,AR,Mountain Pine,34.569642,-93.171493,4/9/24 0:13,4/8/24 17:17,4/8/24 17:49,4/8/24 17:53,4/8/24 18:25,210,-93.171493,34.569642
61,AR,Mountain View,35.861559,-92.109657,4/9/24 0:13,4/8/24 17:20,4/8/24 17:52,4/8/24 17:56,4/8/24 18:28,240,-92.109657,35.861559
62,AR,Mount Ida,34.549153,-93.629939,4/9/24 0:13,4/8/24 17:16,4/8/24 17:48,4/8/24 17:52,4/8/24 18:24,240,-93.629939,34.549153
63,AR,Mount Judea,35.926173,-93.056804,4/9/24 0:13,4/8/24 17:19,4/8/24 17:51,4/8/24 17:54,4/8/24 18:26,180,-93.056804,35.926173
64,AR,Mount Olive,36.003119,-92.090465,4/9/24 0:13,4/8/24 17:21,4/8/24 17:52,4/8/24 17:56,4/8/24 18:28,240,-92.090465,36.003119
65,AR,Mount Pleasant,35.981423,-91.777383,4/9/24 0:13,4/8/24 17:21,4/8/24 17:53,4/8/24 17:57,4/8/24 18:29,240,-91.777383,35.981423
66,AR,Mount Vernon,35.223605,-92.12398,4/9/24 0:13,4/8/24 17:20,4/8/24 17:51,4/8/24 17:55,4/8/24 18:27,210,-92.12398,35.223605
67,AR,Murfreesboro,34.070312,-93.694073,4/9/24 0:13,4/8/24 17:15,4/8/24 17:47,4/8/24 17:51,4/8/24 18:23,210,-93.694073,34.070312
68,AR,Nashville,33.941924,-93.851658,4/9/24 0:13,4/8/24 17:15,4/8/24 17:47,4/8/24 17:51,4/8/24 18:23,210,-93.851658,33.941924
69,AR,Natural Steps,34.874266,-92.497772,4/9/24 0:13,4/8/24 17:18,4/8/24 17:50,4/8/24 17:54,4/8/24 18:26,210,-92.497772,34.874266
70,AR,Newark,35.70763,-91.4434,4/9/24 0:13,4/8/24 17:21,4/8/24 17:53,4/8/24 17:57,4/8/24 18:29,210,-91.4434,35.70763
71,AR,New Blaine,35.29252,-93.419083,4/9/24 0:13,4/8/24 17:18,4/8/24 17:49,4/8/24 17:53,4/8/24 18:25,210,-93.419083,35.29252
72,AR,Newhope,34.222258,-93.877396,4/9/24 0:13,4/8/24 17:15,4/8/24 17:47,4/8/24 17:51,4/8/24 18:23,240,-93.877396,34.222258
73,AR,Newport,35.623772,-91.231682,4/9/24 0:13,4/8/24 17:22,4/8/24 17:54,4/8/24 17:57,4/8/24 18:29,180,-91.231682,35.623772
74,AR,Acorn,34.638786,-94.200112,4/9/24 0:13,4/8/24 17:15,4/8/24 17:47,4/8/24 17:51,4/8/24 18:23,240,-94.200112,34.638786
75,AR,Nimmons,36.30625,-90.095055,4/9/24 0:13,4/8/24 17:24,4/8/24 17:56,4/8/24 17:59,4/8/24 18:31,150,-90.095055,36.30625
76,AR,Adona,35.03993,-92.899132,4/9/24 0:13,4/8/24 17:18,4/8/24 17:50,4/8/24 17:54,4/8/24 18:26,240,-92.899132,35.03993
77,AR,Norfork,36.209469,-92.277844,4/9/24 0:13,4/8/24 17:21,4/8/24 17:52,4/8/24 17:56,4/8/24 18:28,210,-92.277844,36.209469
78,AR,Alexander,34.618588,-92.451217,4/9/24 0:13,4/8/24 17:18,4/8/24 17:51,4/8/24 17:53,4/8/24 18:26,120,-92.451217,34.618588
79,AR,Norman,34.458977,-93.676824,4/9/24 0:13,4/8/24 17:16,4/8/24 17:48,4/8/24 17:52,4/8/24 18:24,240,-93.676824,34.458977
80,AR,Alicia,35.892907,-91.08345,4/9/24 0:13,4/8/24 17:22,4/8/24 17:54,4/8/24 17:58,4/8/24 18:29,210,-91.08345,35.892907
81,AR,Alix,35.422002,-93.728784,4/9/24 0:13,4/8/24 17:17,4/8/24 17:49,4/8/24 17:53,4/8/24 18:25,180,-93.728784,35.422002
82,AR,Alleene,33.764823,-94.262198,4/9/24 0:13,4/8/24 17:14,4/8/24 17:46,4/8/24 17:50,4/8/24 18:22,240,-94.262198,33.764823
83,AR,North Little Rock,34.781752,-92.235057,4/9/24 0:13,4/8/24 17:19,4/8/24 17:51,4/8/24 17:54,4/8/24 18:26,150,-92.235057,34.781752
84,AR,Oak Grove,35.364779,-92.964179,4/9/24 0:13,4/8/24 17:18,4/8/24 17:50,4/8/24 17:54,4/8/24 18:26,240,-92.964179,35.364779
85,AR,Oak Grove Heights,36.126432,-90.503435,4/9/24 0:13,4/8/24 17:23,4/8/24 17:55,4/8/24 17:59,4/8/24 18:31,180,-90.503435,36.126432
86,AR,Oakhaven,33.729396,-93.620783,4/9/24 0:13,4/8/24 17:15,4/8/24 17:48,4/8/24 17:50,4/8/24 18:23,120,-93.620783,33.729396
87,AR,Oakland,36.460423,-92.571771,4/9/24 0:13,4/8/24 17:21,4/8/24 17:53,4/8/24 17:55,4/8/24 18:28,90,-92.571771,36.460423
88,AR,Oark,35.694977,-93.575027,4/9/24 0:13,4/8/24 17:18,4/8/24 17:50,4/8/24 17:53,4/8/24 18:25,120,-93.575027,35.694977
89,AR,Oden,34.623149,-93.783646,4/9/24 0:13,4/8/24 17:16,4/8/24 17:48,4/8/24 17:52,4/8/24 18:24,240,-93.783646,34.623149
90,AR,Alpine,34.226886,-93.378321,4/9/24 0:13,4/8/24 17:16,4/8/24 17:48,4/8/24 17:52,4/8/24 18:24,210,-93.378321,34.226886
91,AR,Ogden,33.585869,-94.046917,4/9/24 0:13,4/8/24 17:14,4/8/24 17:46,4/8/24 17:49,4/8/24 18:22,180,-94.046917,33.585869
92,AR,Oil Trough,35.629162,-91.461229,4/9/24 0:13,4/8/24 17:21,4/8/24 17:53,4/8/24 17:57,4/8/24 18:29,210,-91.461229,35.629162
93,AR,Altus,35.44676,-93.764388,4/9/24 0:13,4/8/24 17:17,4/8/24 17:49,4/8/24 17:52,4/8/24 18:25,150,-93.764388,35.44676
94,AR,O'Kean,36.171462,-90.818348,4/9/24 0:13,4/8/24 17:23,4/8/24 17:55,4/8/24 17:58,4/8/24 18:30,210,-90.818348,36.171462
95,AR,Amagon,35.563173,-91.109415,4/9/24 0:13,4/8/24 17:22,4/8/24 17:54,4/8/24 17:57,4/8/24 18:29,120,-91.109415,35.563173
96,AR,Okolona,34.000478,-93.337624,4/9/24 0:13,4/8/24 17:16,4/8/24 17:48,4/8/24 17:51,4/8/24 18:24,150,-93.337624,34.000478
97,AR,Amity,34.26619,-93.463423,4/9/24 0:13,4/8/24 17:16,4/8/24 17:48,4/8/24 17:52,4/8/24 18:24,210,-93.463423,34.26619
98,AR,Ola,35.031448,-93.224035,4/9/24 0:13,4/8/24 17:17,4/8/24 17:49,4/8/24 17:53,4/8/24 18:25,240,-93.224035,35.031448
99,AR,Antoine,34.034536,-93.421361,4/9/24 0:13,4/8/24 17:16,4/8/24 17:48,4/8/24 17:51,4/8/24 18:24,180,-93.421361,34.034536
100,AR,Aplin,34.967483,-92.981271,4/9/24 0:13,4/8/24 17:18,4/8/24 17:49,4/8/24 17:54,4/8/24 18:26,240,-92.981271,34.967483
101,AR,Oppelo,35.100558,-92.773566,4/9/24 0:13,4/8/24 17:18,4/8/24 17:50,4/8/24 17:54,4/8/24 18:26,240,-92.773566,35.100558
102,AR,Appleton,35.410823,-92.875276,4/9/24 0:13,4/8/24 17:19,4/8/24 17:50,4/8/24 17:54,4/8/24 18:26,240,-92.875276,35.410823
103,AR,Arkadelphia,34.12738,-93.070851,4/9/24 0:13,4/8/24 17:16,4/8/24 17:49,4/8/24 17:51,4/8/24 18:24,120,-93.070851,34.12738
104,AR,Oxford,36.20903,-91.918268,4/9/24 0:13,4/8/24 17:21,4/8/24 17:53,4/8/24 17:57,4/8/24 18:29,240,-91.918268,36.20903
105,AR,Ozan,33.846611,-93.720822,4/9/24 0:13,4/8/24 17:15,4/8/24 17:47,4/8/24 17:50,4/8/24 18:23,180,-93.720822,33.846611
106,AR,Ozark,35.501858,-93.848378,4/9/24 0:13,4/8/24 17:17,4/8/24 17:50,4/8/24 17:52,4/8/24 18:25,120,-93.848378,35.501858
107,AR,Ashdown,33.674529,-94.126627,4/9/24 0:13,4/8/24 17:14,4/8/24 17:46,4/8/24 17:50,4/8/24 18:22,210,-94.126627,33.674529
108,AR,Ozark Acres,36.299916,-91.387076,4/9/24 0:13,4/8/24 17:22,4/8/24 17:54,4/8/24 17:58,4/8/24 18:29,240,-91.387076,36.299916
109,AR,Ash Flat,36.236559,-91.606512,4/9/24 0:13,4/8/24 17:22,4/8/24 17:53,4/8/24 17:57,4/8/24 18:29,240,-91.606512,36.236559
110,AR,Ozone,35.638491,-93.447317,4/9/24 0:13,4/8/24 17:18,4/8/24 17:50,4/8/24 17:53,4/8/24 18:26,180,-93.447317,35.638491
111,AR,Atkins,35.240863,-92.949643,4/9/24 0:13,4/8/24 17:18,4/8/24 17:50,4/8/24 17:54,4/8/24 18:26,240,-92.949643,35.240863
112,AR,Pangburn,35.426108,-91.839411,4/9/24 0:13,4/8/24 17:20,4/8/24 17:52,4/8/24 17:56,4/8/24 18:28,210,-91.839411,35.426108
113,AR,Augusta,35.28655,-91.36086,4/9/24 0:13,4/8/24 17:21,4/8/24 17:54,4/8/24 17:55,4/8/24 18:28,90,-91.36086,35.28655
114,AR,Paragould,36.052289,-90.510464,4/9/24 0:13,4/8/24 17:23,4/8/24 17:55,4/8/24 17:58,4/8/24 18:31,150,-90.510464,36.052289
115,AR,Austin,35.005912,-91.989609,4/9/24 0:13,4/8/24 17:19,4/8/24 17:52,4/8/24 17:55,4/8/24 18:27,150,-91.989609,35.005912
116,AR,Paris,35.290756,-93.734228,4/9/24 0:13,4/8/24 17:17,4/8/24 17:49,4/8/24 17:52,4/8/24 18:25,180,-93.734228,35.290756
117,AR,Avilla,34.694843,-92.586141,4/9/24 0:13,4/8/24 17:18,4/8/24 17:50,4/8/24 17:53,4/8/24 18:26,180,-92.586141,34.694843
118,AR,Bald Knob,35.312539,-91.571253,4/9/24 0:13,4/8/24 17:21,4/8/24 17:53,4/8/24 17:56,4/8/24 18:28,150,-91.571253,35.312539
119,AR,Barling,35.331286,-94.275195,4/9/24 0:13,4/8/24 17:16,4/8/24 17:49,4/8/24 17:50,4/8/24 18:24,30,-94.275195,35.331286
120,AR,Peach Orchard,36.281229,-90.660774,4/9/24 0:13,4/8/24 17:23,4/8/24 17:55,4/8/24 17:59,4/8/24 18:31,210,-90.660774,36.281229
121,AR,Pearcy,34.435455,-93.288217,4/9/24 0:13,4/8/24 17:16,4/8/24 17:48,4/8/24 17:52,4/8/24 18:24,210,-93.288217,34.435455
122,AR,Batesville,35.768572,-91.622652,4/9/24 0:13,4/8/24 17:21,4/8/24 17:53,4/8/24 17:57,4/8/24 18:29,240,-91.622652,35.768572
123,AR,Bauxite,34.557736,-92.50209,4/9/24 0:13,4/8/24 17:18,4/8/24 17:51,4/8/24 17:53,4/8/24 18:26,120,-92.50209,34.557736
124,AR,Pencil Bluff,34.630384,-93.735033,4/9/24 0:13,4/8/24 17:16,4/8/24 17:48,4/8/24 17:52,4/8/24 18:24,240,-93.735033,34.630384
125,AR,Perla,34.364755,-92.776228,4/9/24 0:13,4/8/24 17:17,4/8/24 17:50,4/8/24 17:52,4/8/24 18:25,120,-92.776228,34.364755
126,AR,Perry,35.046221,-92.79441,4/9/24 0:13,4/8/24 17:18,4/8/24 17:50,4/8/24 17:54,4/8/24 18:26,240,-92.79441,35.046221
127,AR,Perrytown,33.697141,-93.532407,4/9/24 0:13,4/8/24 17:15,4/8/24 17:48,4/8/24 17:50,4/8/24 18:23,60,-93.532407,33.697141
128,AR,Beebe,35.072433,-91.901059,4/9/24 0:13,4/8/24 17:20,4/8/24 17:52,4/8/24 17:55,4/8/24 18:27,150,-91.901059,35.072433
129,AR,Perryville,35.012,-92.802938,4/9/24 0:13,4/8/24 17:18,4/8/24 17:50,4/8/24 17:54,4/8/24 18:26,240,-92.802938,35.012
130,AR,Bee Branch,35.462622,-92.401023,4/9/24 0:13,4/8/24 17:19,4/8/24 17:51,4/8/24 17:55,4/8/24 18:27,240,-92.401023,35.462622
131,AR,Piggott,36.387191,-90.198944,4/9/24 0:13,4/8/24 17:24,4/8/24 17:56,4/8/24 17:59,4/8/24 18:31,180,-90.198944,36.387191
132,AR,Beedeville,35.429169,-91.110738,4/9/24 0:13,4/8/24 17:22,4/8/24 17:54,4/8/24 17:56,4/8/24 18:29,60,-91.110738,35.429169
133,AR,Pindall,36.063663,-92.862158,4/9/24 0:13,4/8/24 17:20,4/8/24 17:52,4/8/24 17:55,4/8/24 18:27,150,-92.862158,36.063663
134,AR,Beirne,33.888208,-93.206223,4/9/24 0:13,4/8/24 17:16,4/8/24 17:49,4/8/24 17:50,4/8/24 18:24,30,-93.206223,33.888208
135,AR,Pineville,36.161145,-92.106471,4/9/24 0:13,4/8/24 17:21,4/8/24 17:53,4/8/24 17:56,4/8/24 18:28,210,-92.106471,36.161145
136,AR,Bellefonte,36.199864,-93.047039,4/9/24 0:13,4/8/24 17:20,4/8/24 17:52,4/8/24 17:53,4/8/24 18:27,60,-93.047039,36.199864
137,AR,Piney,34.502914,-93.144427,4/9/24 0:13,4/8/24 17:17,4/8/24 17:49,4/8/24 17:53,4/8/24 18:25,210,-93.144427,34.502914
138,AR,Belleville,35.09153,-93.445774,4/9/24 0:13,4/8/24 17:17,4/8/24 17:49,4/8/24 17:53,4/8/24 18:25,240,-93.445774,35.09153
139,AR,Plainview,34.989874,-93.297948,4/9/24 0:13,4/8/24 17:17,4/8/24 17:49,4/8/24 17:53,4/8/24 18:25,240,-93.297948,34.989874
140,AR,Ben Lomond,33.829113,-94.123319,4/9/24 0:13,4/8/24 17:14,4/8/24 17:46,4/8/24 17:50,4/8/24 18:22,210,-94.123319,33.829113
141,AR,Pleasant Grove,35.820465,-91.906976,4/9/24 0:13,4/8/24 17:21,4/8/24 17:52,4/8/24 17:56,4/8/24 18:28,240,-91.906976,35.820465
142,AR,Benton,34.577424,-92.572583,4/9/24 0:13,4/8/24 17:18,4/8/24 17:50,4/8/24 17:53,4/8/24 18:26,150,-92.572583,34.577424
143,AR,Pleasant Plains,35.55453,-91.627246,4/9/24 0:13,4/8/24 17:21,4/8/24 17:53,4/8/24 17:56,4/8/24 18:28,210,-91.627246,35.55453
144,AR,Caddo Gap,34.402494,-93.617881,4/9/24 0:13,4/8/24 17:16,4/8/24 17:48,4/8/24 17:52,4/8/24 18:24,240,-93.617881,34.402494
145,AR,Plumerville,35.159377,-92.643059,4/9/24 0:13,4/8/24 17:19,4/8/24 17:50,4/8/24 17:54,4/8/24 18:26,240,-92.643059,35.159377
146,AR,Caddo Valley,34.180746,-93.084597,4/9/24 0:13,4/8/24 17:16,4/8/24 17:49,4/8/24 17:52,4/8/24 18:24,150,-93.084597,34.180746
147,AR,Calico Rock,36.121965,-92.125913,4/9/24 0:13,4/8/24 17:21,4/8/24 17:52,4/8/24 17:56,4/8/24 18:28,210,-92.125913,36.121965
148,AR,Cammack Village,34.7808,-92.344976,4/9/24 0:13,4/8/24 17:19,4/8/24 17:51,4/8/24 17:54,4/8/24 18:26,150,-92.344976,34.7808
149,AR,Campbell Station,35.667799,-91.253754,4/9/24 0:13,4/8/24 17:22,4/8/24 17:54,4/8/24 17:57,4/8/24 18:29,180,-91.253754,35.667799
150,AR,Casa,35.024966,-93.045507,4/9/24 0:13,4/8/24 17:18,4/8/24 17:49,4/8/24 17:54,4/8/24 18:26,240,-93.045507,35.024966
151,AR,Cash,35.801157,-90.931648,4/9/24 0:13,4/8/24 17:22,4/8/24 17:54,4/8/24 17:57,4/8/24 18:30,150,-90.931648,35.801157
152,AR,Caulksville,35.301849,-93.867806,4/9/24 0:13,4/8/24 17:17,4/8/24 17:49,4/8/24 17:52,4/8/24 18:24,180,-93.867806,35.301849
153,AR,Cave City,35.948169,-91.54675,4/9/24 0:13,4/8/24 17:22,4/8/24 17:53,4/8/24 17:57,4/8/24 18:29,240,-91.54675,35.948169
154,AR,Center Point,34.031828,-93.951166,4/9/24 0:13,4/8/24 17:15,4/8/24 17:47,4/8/24 17:51,4/8/24 18:23,240,-93.951166,34.031828
155,AR,Center Ridge,35.380707,-92.575626,4/9/24 0:13,4/8/24 17:19,4/8/24 17:51,4/8/24 17:55,4/8/24 18:27,240,-92.575626,35.380707
156,AR,Centerville,35.115702,-93.171461,4/9/24 0:13,4/8/24 17:18,4/8/24 17:49,4/8/24 17:54,4/8/24 18:25,240,-93.171461,35.115702
157,AR,Central City,35.336381,-94.238042,4/9/24 0:13,4/8/24 17:16,4/8/24 17:49,4/8/24 17:51,4/8/24 18:24,60,-94.238042,35.336381
158,AR,Charleston,35.294515,-94.04835,4/9/24 0:13,4/8/24 17:17,4/8/24 17:49,4/8/24 17:52,4/8/24 18:24,150,-94.04835,35.294515
159,AR,Cherokee Village,36.291321,-91.569368,4/9/24 0:13,4/8/24 17:22,4/8/24 17:53,4/8/24 17:58,4/8/24 18:29,240,-91.569368,36.291321
160,AR,Clarksville,35.453918,-93.481558,4/9/24 0:13,4/8/24 17:18,4/8/24 17:50,4/8/24 17:53,4/8/24 18:25,180,-93.481558,35.453918
161,AR,Clinton,35.578981,-92.455735,4/9/24 0:13,4/8/24 17:20,4/8/24 17:51,4/8/24 17:55,4/8/24 18:27,240,-92.455735,35.578981
162,AR,Coal Hill,35.436892,-93.665193,4/9/24 0:13,4/8/24 17:17,4/8/24 17:49,4/8/24 17:53,4/8/24 18:25,180,-93.665193,35.436892
163,AR,College Station,34.700535,-92.228432,4/9/24 0:13,4/8/24 17:19,4/8/24 17:51,4/8/24 17:53,4/8/24 18:26,90,-92.228432,34.700535
164,AR,Concord,35.66633,-91.860623,4/9/24 0:13,4/8/24 17:21,4/8/24 17:52,4/8/24 17:56,4/8/24 18:28,240,-91.860623,35.66633
165,AR,Conway,35.074404,-92.467004,4/9/24 0:13,4/8/24 17:19,4/8/24 17:51,4/8/24 17:54,4/8/24 18:26,210,-92.467004,35.074404
166,AR,Corinth,35.069508,-93.420089,4/9/24 0:13,4/8/24 17:17,4/8/24 17:49,4/8/24 17:53,4/8/24 18:25,240,-93.420089,35.069508
167,AR,Corning,36.413682,-90.583609,4/9/24 0:13,4/8/24 17:24,4/8/24 17:55,4/8/24 17:59,4/8/24 18:31,210,-90.583609,36.413682
168,AR,Cotter,36.281898,-92.520821,4/9/24 0:13,4/8/24 17:20,4/8/24 17:52,4/8/24 17:56,4/8/24 18:28,180,-92.520821,36.281898
169,AR,Cove,34.438983,-94.422321,4/9/24 0:13,4/8/24 17:15,4/8/24 17:46,4/8/24 17:51,4/8/24 18:23,240,-94.422321,34.438983
170,AR,Crystal Springs,34.524828,-93.333623,4/9/24 0:13,4/8/24 17:17,4/8/24 17:48,4/8/24 17:52,4/8/24 18:24,240,-93.333623,34.524828
171,AR,Cushman,35.865844,-91.778081,4/9/24 0:13,4/8/24 17:21,4/8/24 17:53,4/8/24 17:57,4/8/24 18:28,240,-91.778081,35.865844
172,AR,Daisy,34.235924,-93.739193,4/9/24 0:13,4/8/24 17:15,4/8/24 17:47,4/8/24 17:51,4/8/24 18:23,240,-93.739193,34.235924
173,AR,Damascus,35.367092,-92.410712,4/9/24 0:13,4/8/24 17:19,4/8/24 17:51,4/8/24 17:55,4/8/24 18:27,240,-92.410712,35.367092
174,AR,Danville,35.052457,-93.391199,4/9/24 0:13,4/8/24 17:17,4/8/24 17:49,4/8/24 17:53,4/8/24 18:25,240,-93.391199,35.052457
175,AR,Dardanelle,35.226305,-93.165909,4/9/24 0:13,4/8/24 17:18,4/8/24 17:49,4/8/24 17:54,4/8/24 18:25,240,-93.165909,35.226305
176,AR,Datto,36.392471,-90.728499,4/9/24 0:13,4/8/24 17:23,4/8/24 17:55,4/8/24 17:59,4/8/24 18:31,240,-90.728499,36.392471
177,AR,Deer,35.828023,-93.219622,4/9/24 0:13,4/8/24 17:19,4/8/24 17:51,4/8/24 17:54,4/8/24 18:26,150,-93.219622,35.828023
178,AR,Delaplaine,36.230393,-90.725646,4/9/24 0:13,4/8/24 17:23,4/8/24 17:55,4/8/24 17:59,4/8/24 18:30,210,-90.725646,36.230393
179,AR,Delight,34.02953,-93.506555,4/9/24 0:13,4/8/24 17:16,4/8/24 17:48,4/8/24 17:51,4/8/24 18:24,180,-93.506555,34.02953
180,AR,Dennard,35.747919,-92.549999,4/9/24 0:13,4/8/24 17:20,4/8/24 17:51,4/8/24 17:55,4/8/24 18:27,240,-92.549999,35.747919
181,AR,Denning,35.425153,-93.756758,4/9/24 0:13,4/8/24 17:17,4/8/24 17:49,4/8/24 17:52,4/8/24 18:25,180,-93.756758,35.425153
182,AR,De Queen,34.042245,-94.342133,4/9/24 0:13,4/8/24 17:14,4/8/24 17:46,4/8/24 17:50,4/8/24 18:22,240,-94.342133,34.042245
183,AR,Desha,35.730455,-91.685579,4/9/24 0:13,4/8/24 17:21,4/8/24 17:53,4/8/24 17:57,4/8/24 18:28,240,-91.685579,35.730455
184,AR,Diaz,35.648773,-91.258933,4/9/24 0:13,4/8/24 17:22,4/8/24 17:54,4/8/24 17:57,4/8/24 18:29,180,-91.258933,35.648773
185,AR,Dierks,34.119961,-94.017283,4/9/24 0:13,4/8/24 17:15,4/8/24 17:47,4/8/24 17:51,4/8/24 18:23,240,-94.017283,34.119961
186,AR,Donaldson,34.234976,-92.919517,4/9/24 0:13,4/8/24 17:17,4/8/24 17:49,4/8/24 17:52,4/8/24 18:25,120,-92.919517,34.234976
187,AR,Dover,35.390981,-93.114241,4/9/24 0:13,4/8/24 17:18,4/8/24 17:50,4/8/24 17:54,4/8/24 18:26,240,-93.114241,35.390981
188,AR,Drasco,35.633775,-91.941776,4/9/24 0:13,4/8/24 17:20,4/8/24 17:52,4/8/24 17:56,4/8/24 18:28,240,-91.941776,35.633775
189,AR,East End,34.554505,-92.327475,4/9/24 0:13,4/8/24 17:18,4/8/24 17:51,4/8/24 17:52,4/8/24 18:26,60,-92.327475,34.554505
190,AR,Edgemont,35.600686,-92.196371,4/9/24 0:13,4/8/24 17:20,4/8/24 17:52,4/8/24 17:56,4/8/24 18:28,240,-92.196371,35.600686
191,AR,Egypt,35.867775,-90.945834,4/9/24 0:13,4/8/24 17:22,4/8/24 17:54,4/8/24 17:58,4/8/24 18:30,180,-90.945834,35.867775
192,AR,El Paso,35.115298,-92.081189,4/9/24 0:13,4/8/24 17:19,4/8/24 17:52,4/8/24 17:55,4/8/24 18:27,180,-92.081189,35.115298
193,AR,Emmet,33.722539,-93.466156,4/9/24 0:13,4/8/24 17:15,4/8/24 17:48,4/8/24 17:49,4/8/24 18:23,60,-93.466156,33.722539
194,AR,Enola,35.195907,-92.206581,4/9/24 0:13,4/8/24 17:19,4/8/24 17:51,4/8/24 17:55,4/8/24 18:27,210,-92.206581,35.195907
195,AR,Evening Shade,36.069933,-91.621881,4/9/24 0:13,4/8/24 17:22,4/8/24 17:53,4/8/24 17:57,4/8/24 18:29,240,-91.621881,36.069933
196,AR,Everton,36.15414,-92.909538,4/9/24 0:13,4/8/24 17:20,4/8/24 17:52,4/8/24 17:54,4/8/24 18:27,120,-92.909538,36.15414
197,AR,Pocahontas,36.263366,-90.971224,4/9/24 0:13,4/8/24 17:23,4/8/24 17:54,4/8/24 17:58,4/8/24 18:30,240,-90.971224,36.263366
198,AR,Pollard,36.429561,-90.267129,4/9/24 0:13,4/8/24 17:24,4/8/24 17:56,4/8/24 18:00,4/8/24 18:31,210,-90.267129,36.429561
199,AR,Bethesda,35.787096,-91.792711,4/9/24 0:13,4/8/24 17:21,4/8/24 17:52,4/8/24 17:57,4/8/24 18:28,240,-91.792711,35.787096
200,AR,Bigelow,34.997795,-92.631175,4/9/24 0:13,4/8/24 17:18,4/8/24 17:50,4/8/24 17:54,4/8/24 18:26,210,-92.631175,34.997795
201,AR,Portia,36.084865,-91.071044,4/9/24 0:13,4/8/24 17:22,4/8/24 17:54,4/8/24 17:58,4/8/24 18:30,210,-91.071044,36.084865
202,AR,Big Flat,36.003394,-92.41022,4/9/24 0:13,4/8/24 17:20,4/8/24 17:52,4/8/24 17:56,4/8/24 18:28,210,-92.41022,36.003394
203,AR,Biggers,36.331361,-90.800701,4/9/24 0:13,4/8/24 17:23,4/8/24 17:55,4/8/24 17:59,4/8/24 18:30,240,-90.800701,36.331361
204,AR,Pottsville,35.230606,-93.060839,4/9/24 0:13,4/8/24 17:18,4/8/24 17:50,4/8/24 17:54,4/8/24 18:26,240,-93.060839,35.230606
205,AR,Bismarck,34.321836,-93.178139,4/9/24 0:13,4/8/24 17:16,4/8/24 17:49,4/8/24 17:52,4/8/24 18:24,180,-93.178139,34.321836
206,AR,Huntington,35.08171,-94.266319,4/9/24 0:13,4/8/24 17:16,4/8/24 17:48,4/8/24 17:51,4/8/24 18:24,150,-94.266319,35.08171
207,AR,Powhatan,36.087312,-91.123884,4/9/24 0:13,4/8/24 17:22,4/8/24 17:54,4/8/24 17:58,4/8/24 18:30,210,-91.123884,36.087312
208,AR,Poyen,34.324169,-92.641976,4/9/24 0:13,4/8/24 17:17,4/8/24 17:51,4/8/24 17:52,4/8/24 18:25,30,-92.641976,34.324169
209,AR,Black Rock,36.106237,-91.10748,4/9/24 0:13,4/8/24 17:22,4/8/24 17:54,4/8/24 17:58,4/8/24 18:30,240,-91.10748,36.106237
210,AR,Black Springs,34.455977,-93.713115,4/9/24 0:13,4/8/24 17:16,4/8/24 17:48,4/8/24 17:52,4/8/24 18:24,240,-93.713115,34.455977
211,AR,Imboden,36.199696,-91.177386,4/9/24 0:13,4/8/24 17:22,4/8/24 17:54,4/8/24 17:58,4/8/24 18:30,240,-91.177386,36.199696
212,AR,Blevins,33.871251,-93.578187,4/9/24 0:13,4/8/24 17:15,4/8/24 17:48,4/8/24 17:50,4/8/24 18:23,150,-93.578187,33.871251
213,AR,Prescott,33.80432,-93.391207,4/9/24 0:13,4/8/24 17:15,4/8/24 17:48,4/8/24 17:50,4/8/24 18:23,90,-93.391207,33.80432
214,AR,Blue Mountain,35.131796,-93.716666,4/9/24 0:13,4/8/24 17:17,4/8/24 17:49,4/8/24 17:52,4/8/24 18:25,210,-93.716666,35.131796
215,AR,Jacksonport,35.642177,-91.307914,4/9/24 0:13,4/8/24 17:22,4/8/24 17:53,4/8/24 17:57,4/8/24 18:29,180,-91.307914,35.642177
216,AR,Jacksonville,34.880512,-92.13059,4/9/24 0:13,4/8/24 17:19,4/8/24 17:51,4/8/24 17:54,4/8/24 18:27,150,-92.13059,34.880512
217,AR,Pyatt,36.250744,-92.846637,4/9/24 0:13,4/8/24 17:20,4/8/24 17:52,4/8/24 17:55,4/8/24 18:27,120,-92.846637,36.250744
218,AR,Jasper,36.012102,-93.1875,4/9/24 0:13,4/8/24 17:19,4/8/24 17:52,4/8/24 17:54,4/8/24 18:26,120,-93.1875,36.012102
219,AR,Quitman,35.381723,-92.214724,4/9/24 0:13,4/8/24 17:20,4/8/24 17:51,4/8/24 17:55,4/8/24 18:27,240,-92.214724,35.381723
220,AR,Board Camp,34.532519,-94.079674,4/9/24 0:13,4/8/24 17:15,4/8/24 17:47,4/8/24 17:51,4/8/24 18:23,240,-94.079674,34.532519
221,AR,Ratcliff,35.306946,-93.888636,4/9/24 0:13,4/8/24 17:17,4/8/24 17:49,4/8/24 17:52,4/8/24 18:24,180,-93.888636,35.306946
222,AR,Ravenden Springs,36.312705,-91.223265,4/9/24 0:13,4/8/24 17:23,4/8/24 17:54,4/8/24 17:58,4/8/24 18:30,240,-91.223265,36.312705
223,AR,Boles,34.788119,-94.049397,4/9/24 0:13,4/8/24 17:16,4/8/24 17:48,4/8/24 17:52,4/8/24 18:24,210,-94.049397,34.788119
224,AR,Rector,36.264158,-90.293518,4/9/24 0:13,4/8/24 17:24,4/8/24 17:56,4/8/24 17:59,4/8/24 18:31,180,-90.293518,36.264158
225,AR,Ravenden,36.243201,-91.251307,4/9/24 0:13,4/8/24 17:22,4/8/24 17:54,4/8/24 17:58,4/8/24 18:30,240,-91.251307,36.243201
226,AR,Jerusalem,35.40757,-92.823013,4/9/24 0:13,4/8/24 17:19,4/8/24 17:50,4/8/24 17:55,4/8/24 18:26,240,-92.823013,35.40757
227,AR,Bonanza,35.231794,-94.416133,4/9/24 0:13,4/8/24 17:16,4/8/24 17:49,4/8/24 17:50,4/8/24 18:23,30,-94.416133,35.231794
228,AR,Reyno,36.360899,-90.758993,4/9/24 0:13,4/8/24 17:23,4/8/24 17:55,4/8/24 17:59,4/8/24 18:30,240,-90.758993,36.360899
229,AR,Jonesboro,35.819755,-90.679033,4/9/24 0:13,4/8/24 17:23,4/8/24 17:55,4/8/24 17:57,4/8/24 18:30,120,-90.679033,35.819755
230,AR,Bono,35.911102,-90.800821,4/9/24 0:13,4/8/24 17:23,4/8/24 17:55,4/8/24 17:58,4/8/24 18:30,180,-90.800821,35.911102
231,AR,Jones Mills,34.444947,-92.901539,4/9/24 0:13,4/8/24 17:17,4/8/24 17:49,4/8/24 17:52,4/8/24 18:25,180,-92.901539,34.444947
232,AR,Booneville,35.139329,-93.9175,4/9/24 0:13,4/8/24 17:17,4/8/24 17:48,4/8/24 17:52,4/8/24 18:24,180,-93.9175,35.139329
233,AR,Judsonia,35.276431,-91.641614,4/9/24 0:13,4/8/24 17:20,4/8/24 17:53,4/8/24 17:56,4/8/24 18:28,150,-91.641614,35.276431
234,AR,Bowman,35.816835,-90.496228,4/9/24 0:13,4/8/24 17:23,4/8/24 17:56,4/8/24 17:57,4/8/24 18:30,30,-90.496228,35.816835
235,AR,Rockport,34.406892,-92.80157,4/9/24 0:13,4/8/24 17:17,4/8/24 17:50,4/8/24 17:52,4/8/24 18:25,150,-92.80157,34.406892
236,AR,Bradford,35.422004,-91.455232,4/9/24 0:13,4/8/24 17:21,4/8/24 17:53,4/8/24 17:56,4/8/24 18:28,150,-91.455232,35.422004
237,AR,Rockwell,34.464341,-93.133829,4/9/24 0:13,4/8/24 17:17,4/8/24 17:49,4/8/24 17:52,4/8/24 18:25,210,-93.133829,34.464341
238,AR,Roland,34.90224,-92.517469,4/9/24 0:13,4/8/24 17:18,4/8/24 17:50,4/8/24 17:54,4/8/24 18:26,210,-92.517469,34.90224
239,AR,Rose Bud,35.321183,-92.076515,4/9/24 0:13,4/8/24 17:20,4/8/24 17:52,4/8/24 17:55,4/8/24 18:27,210,-92.076515,35.321183
240,AR,Rover,34.951824,-93.408964,4/9/24 0:13,4/8/24 17:17,4/8/24 17:49,4/8/24 17:53,4/8/24 18:25,240,-93.408964,34.951824
241,AR,Russell,35.362126,-91.509947,4/9/24 0:13,4/8/24 17:21,4/8/24 17:53,4/8/24 17:56,4/8/24 18:28,150,-91.509947,35.362126
242,AR,Russellville,35.276328,-93.138743,4/9/24 0:13,4/8/24 17:18,4/8/24 17:50,4/8/24 17:54,4/8/24 18:26,240,-93.138743,35.276328
243,AR,St. Francis,36.454872,-90.142179,4/9/24 0:13,4/8/24 17:24,4/8/24 17:56,4/8/24 18:00,4/8/24 18:31,180,-90.142179,36.454872
244,AR,St. Joe,36.026028,-92.801276,4/9/24 0:13,4/8/24 17:20,4/8/24 17:52,4/8/24 17:55,4/8/24 18:27,180,-92.801276,36.026028
245,AR,Salado,35.695405,-91.592317,4/9/24 0:13,4/8/24 17:21,4/8/24 17:53,4/8/24 17:57,4/8/24 18:28,210,-91.592317,35.695405
246,AR,Salem,36.370416,-91.821706,4/9/24 0:13,4/8/24 17:22,4/8/24 17:53,4/8/24 17:57,4/8/24 18:29,210,-91.821706,36.370416
247,AR,Salem,34.630899,-92.561492,4/9/24 0:13,4/8/24 17:18,4/8/24 17:50,4/8/24 17:53,4/8/24 18:26,150,-92.561492,34.630899
248,AR,Salesville,36.23906,-92.277495,4/9/24 0:13,4/8/24 17:21,4/8/24 17:52,4/8/24 17:56,4/8/24 18:28,210,-92.277495,36.23906
249,AR,Saratoga,33.743741,-93.904289,4/9/24 0:13,4/8/24 17:14,4/8/24 17:47,4/8/24 17:50,4/8/24 18:23,180,-93.904289,33.743741
250,AR,Sardis,34.533041,-92.406722,4/9/24 0:13,4/8/24 17:18,4/8/24 17:51,4/8/24 17:53,4/8/24 18:26,90,-92.406722,34.533041
251,AR,Scott,34.69766,-92.093932,4/9/24 0:13,4/8/24 17:19,4/8/24 17:52,4/8/24 17:53,4/8/24 18:27,30,-92.093932,34.69766
252,AR,Scranton,35.36043,-93.539724,4/9/24 0:13,4/8/24 17:17,4/8/24 17:49,4/8/24 17:53,4/8/24 18:25,210,-93.539724,35.36043
253,AR,Searcy,35.241134,-91.735223,4/9/24 0:13,4/8/24 17:20,4/8/24 17:52,4/8/24 17:55,4/8/24 18:28,150,-91.735223,35.241134
254,AR,Sedgwick,35.974161,-90.862149,4/9/24 0:13,4/8/24 17:23,4/8/24 17:55,4/8/24 17:58,4/8/24 18:30,180,-90.862149,35.974161
255,AR,Shannon Hills,34.617586,-92.402176,4/9/24 0:13,4/8/24 17:18,4/8/24 17:51,4/8/24 17:53,4/8/24 18:26,120,-92.402176,34.617586
256,AR,Sherwood,34.852029,-92.204483,4/9/24 0:13,4/8/24 17:19,4/8/24 17:51,4/8/24 17:54,4/8/24 18:27,150,-92.204483,34.852029
257,AR,Shirley,35.643751,-92.313519,4/9/24 0:13,4/8/24 17:20,4/8/24 17:51,4/8/24 17:56,4/8/24 18:27,240,-92.313519,35.643751
258,AR,Sidney,36.004421,-91.658289,4/9/24 0:13,4/8/24 17:21,4/8/24 17:53,4/8/24 17:57,4/8/24 18:29,240,-91.658289,36.004421
259,AR,Smithville,36.079921,-91.302675,4/9/24 0:13,4/8/24 17:22,4/8/24 17:54,4/8/24 17:58,4/8/24 18:29,240,-91.302675,36.079921
260,AR,Southside,35.720183,-91.630162,4/9/24 0:13,4/8/24 17:21,4/8/24 17:53,4/8/24 17:57,4/8/24 18:28,210,-91.630162,35.720183
261,AR,Springfield,35.272887,-92.554988,4/9/24 0:13,4/8/24 17:19,4/8/24 17:51,4/8/24 17:55,4/8/24 18:27,240,-92.554988,35.272887
262,AR,Strawberry,35.966523,-91.321102,4/9/24 0:13,4/8/24 17:22,4/8/24 17:53,4/8/24 17:57,4/8/24 18:29,240,-91.321102,35.966523
263,AR,Subiaco,35.297367,-93.639439,4/9/24 0:13,4/8/24 17:17,4/8/24 17:49,4/8/24 17:53,4/8/24 18:25,210,-93.639439,35.297367
264,AR,Success,36.454501,-90.722625,4/9/24 0:13,4/8/24 17:24,4/8/24 17:55,4/8/24 17:59,4/8/24 18:31,240,-90.722625,36.454501
265,AR,Sulphur Rock,35.751613,-91.500264,4/9/24 0:13,4/8/24 17:21,4/8/24 17:53,4/8/24 17:57,4/8/24 18:29,210,-91.500264,35.751613
266,AR,Summit,36.252203,-92.688287,4/9/24 0:13,4/8/24 17:20,4/8/24 17:52,4/8/24 17:55,4/8/24 18:27,150,-92.688287,36.252203
267,AR,Sweet Home,34.667397,-92.246304,4/9/24 0:13,4/8/24 17:18,4/8/24 17:51,4/8/24 17:53,4/8/24 18:26,90,-92.246304,34.667397
268,AR,Swifton,35.824376,-91.129429,4/9/24 0:13,4/8/24 17:22,4/8/24 17:54,4/8/24 17:57,4/8/24 18:29,180,-91.129429,35.824376
269,AR,Texarkana,33.436339,-93.987118,4/9/24 0:13,4/8/24 17:14,4/8/24 17:47,4/8/24 17:49,4/8/24 18:22,120,-93.987118,33.436339
270,AR,Tollette,33.818095,-93.896899,4/9/24 0:13,4/8/24 17:15,4/8/24 17:47,4/8/24 17:50,4/8/24 18:23,180,-93.896899,33.818095
271,AR,Traskwood,34.452451,-92.666438,4/9/24 0:13,4/8/24 17:18,4/8/24 17:50,4/8/24 17:53,4/8/24 18:25,120,-92.666438,34.452451
272,AR,Tuckerman,35.725641,-91.202079,4/9/24 0:13,4/8/24 17:22,4/8/24 17:54,4/8/24 17:57,4/8/24 18:29,180,-91.202079,35.725641
273,AR,Tull,34.441214,-92.585881,4/9/24 0:13,4/8/24 17:18,4/8/24 17:50,4/8/24 17:52,4/8/24 18:26,90,-92.585881,34.441214
274,AR,Tumbling Shoals,35.547053,-91.96746,4/9/24 0:13,4/8/24 17:20,4/8/24 17:52,4/8/24 17:56,4/8/24 18:28,240,-91.96746,35.547053
275,AR,Tupelo,35.390332,-91.229904,4/9/24 0:13,4/8/24 17:21,4/8/24 17:54,4/8/24 17:56,4/8/24 18:29,90,-91.229904,35.390332
276,AR,Twin Groves,35.329207,-92.405668,4/9/24 0:13,4/8/24 17:19,4/8/24 17:51,4/8/24 17:55,4/8/24 18:27,240,-92.405668,35.329207
277,AR,Valley Springs,36.153768,-92.989698,4/9/24 0:13,4/8/24 17:20,4/8/24 17:52,4/8/24 17:54,4/8/24 18:27,120,-92.989698,36.153768
278,AR,Vandervoort,34.379781,-94.364919,4/9/24 0:13,4/8/24 17:15,4/8/24 17:46,4/8/24 17:51,4/8/24 18:23,240,-94.364919,34.379781
279,AR,Vilonia,35.078702,-92.215387,4/9/24 0:13,4/8/24 17:19,4/8/24 17:51,4/8/24 17:55,4/8/24 18:27,210,-92.215387,35.078702
280,AR,Viola,36.399237,-91.986977,4/9/24 0:13,4/8/24 17:21,4/8/24 17:53,4/8/24 17:57,4/8/24 18:29,210,-91.986977,36.399237
281,AR,Violet Hill,36.152899,-91.839723,4/9/24 0:13,4/8/24 17:21,4/8/24 17:53,4/8/24 17:57,4/8/24 18:29,240,-91.839723,36.152899
282,AR,Walcott,36.046118,-90.670497,4/9/24 0:13,4/8/24 17:23,4/8/24 17:55,4/8/24 17:58,4/8/24 18:30,180,-90.670497,36.046118
283,AR,Waldenburg,35.565255,-90.934561,4/9/24 0:13,4/8/24 17:22,4/8/24 17:55,4/8/24 17:56,4/8/24 18:29,90,-90.934561,35.565255
284,AR,Waldron,34.903252,-94.094839,4/9/24 0:13,4/8/24 17:16,4/8/24 17:48,4/8/24 17:52,4/8/24 18:24,210,-94.094839,34.903252
285,AR,Kensett,35.2352,-91.671256,4/9/24 0:13,4/8/24 17:20,4/8/24 17:53,4/8/24 17:55,4/8/24 18:28,150,-91.671256,35.2352
286,AR,Branch,35.308303,-93.95537,4/9/24 0:13,4/8/24 17:17,4/8/24 17:49,4/8/24 17:52,4/8/24 18:24,150,-93.95537,35.308303
287,AR,Briarcliff,36.271968,-92.28209,4/9/24 0:13,4/8/24 17:21,4/8/24 17:53,4/8/24 17:56,4/8/24 18:28,210,-92.28209,36.271968
288,AR,Brookland,35.897051,-90.571657,4/9/24 0:13,4/8/24 17:23,4/8/24 17:55,4/8/24 17:58,4/8/24 18:30,120,-90.571657,35.897051
289,AR,Bryant,34.615059,-92.491338,4/9/24 0:13,4/8/24 17:18,4/8/24 17:51,4/8/24 17:53,4/8/24 18:26,150,-92.491338,34.615059
290,AR,Kirby,34.254291,-93.654873,4/9/24 0:13,4/8/24 17:16,4/8/24 17:47,4/8/24 17:51,4/8/24 18:24,240,-93.654873,34.254291
291,AR,Knobel,36.319986,-90.602266,4/9/24 0:13,4/8/24 17:24,4/8/24 17:55,4/8/24 17:59,4/8/24 18:31,210,-90.602266,36.319986
292,AR,Buffalo City,36.169075,-92.437942,4/9/24 0:13,4/8/24 17:20,4/8/24 17:52,4/8/24 17:56,4/8/24 18:28,210,-92.437942,36.169075
293,AR,Knoxville,35.377537,-93.361839,4/9/24 0:13,4/8/24 17:18,4/8/24 17:50,4/8/24 17:53,4/8/24 18:25,210,-93.361839,35.377537
294,AR,Bull Shoals,36.37357,-92.591504,4/9/24 0:13,4/8/24 17:21,4/8/24 17:53,4/8/24 17:55,4/8/24 18:28,120,-92.591504,36.37357
295,AR,Lafe,36.209178,-90.504292,4/9/24 0:13,4/8/24 17:24,4/8/24 17:55,4/8/24 17:59,4/8/24 18:31,180,-90.504292,36.209178
296,AR,Cabot,34.975106,-92.028288,4/9/24 0:13,4/8/24 17:19,4/8/24 17:52,4/8/24 17:54,4/8/24 18:27,150,-92.028288,34.975106
297,AR,Lake Hamilton,34.429621,-93.076352,4/9/24 0:13,4/8/24 17:17,4/8/24 17:49,4/8/24 17:52,4/8/24 18:25,180,-93.076352,34.429621
298,AR,Lakeview,36.373907,-92.538735,4/9/24 0:13,4/8/24 17:21,4/8/24 17:53,4/8/24 17:55,4/8/24 18:28,150,-92.538735,36.373907
299,AR,Lamar,35.444425,-93.394675,4/9/24 0:13,4/8/24 17:18,4/8/24 17:50,4/8/24 17:53,4/8/24 18:25,210,-93.394675,35.444425
300,AR,Landmark,34.610352,-92.316045,4/9/24 0:13,4/8/24 17:18,4/8/24 17:51,4/8/24 17:53,4/8/24 18:26,90,-92.316045,34.610352
301,AR,Lavaca,35.330199,-94.182885,4/9/24 0:13,4/8/24 17:16,4/8/24 17:49,4/8/24 17:51,4/8/24 18:24,90,-94.182885,35.330199
302,AR,Leslie,35.829508,-92.555961,4/9/24 0:13,4/8/24 17:20,4/8/24 17:51,4/8/24 17:55,4/8/24 18:27,210,-92.555961,35.829508
303,AR,Letona,35.363502,-91.829547,4/9/24 0:13,4/8/24 17:20,4/8/24 17:52,4/8/24 17:56,4/8/24 18:28,210,-91.829547,35.363502
304,AR,Little Rock,34.725393,-92.358556,4/9/24 0:13,4/8/24 17:18,4/8/24 17:51,4/8/24 17:54,4/8/24 18:26,150,-92.358556,34.725393
305,AR,Lockesburg,33.972871,-94.179584,4/9/24 0:13,4/8/24 17:14,4/8/24 17:46,4/8/24 17:50,4/8/24 18:22,240,-94.179584,33.972871
306,AR,London,35.327616,-93.243466,4/9/24 0:13,4/8/24 17:18,4/8/24 17:50,4/8/24 17:54,4/8/24 18:26,240,-93.243466,35.327616
307,AR,Lonsdale,34.544967,-92.810563,4/9/24 0:13,4/8/24 17:17,4/8/24 17:50,4/8/24 17:53,4/8/24 18:25,180,-92.810563,34.544967
308,AR,Lynn,36.004263,-91.252,4/9/24 0:13,4/8/24 17:22,4/8/24 17:54,4/8/24 17:58,4/8/24 18:29,240,-91.252,36.004263
309,AR,McAlmont,34.792492,-92.196013,4/9/24 0:13,4/8/24 17:19,4/8/24 17:51,4/8/24 17:54,4/8/24 18:27,120,-92.196013,34.792492
310,AR,McCaskill,33.919539,-93.636831,4/9/24 0:13,4/8/24 17:15,4/8/24 17:47,4/8/24 17:51,4/8/24 18:23,180,-93.636831,33.919539
311,AR,McDougal,36.436465,-90.390727,4/9/24 0:13,4/8/24 17:24,4/8/24 17:56,4/8/24 17:59,4/8/24 18:31,210,-90.390727,36.436465
312,AR,McNab,33.660895,-93.832282,4/9/24 0:13,4/8/24 17:14,4/8/24 17:47,4/8/24 17:50,4/8/24 18:23,150,-93.832282,33.660895
313,AR,McRae,35.113627,-91.826194,4/9/24 0:13,4/8/24 17:20,4/8/24 17:52,4/8/24 17:55,4/8/24 18:28,150,-91.826194,35.113627
314,AR,Magazine,35.153901,-93.807851,4/9/24 0:13,4/8/24 17:17,4/8/24 17:49,4/8/24 17:52,4/8/24 18:24,210,-93.807851,35.153901
315,AR,Magness,35.703055,-91.482237,4/9/24 0:13,4/8/24 17:21,4/8/24 17:53,4/8/24 17:57,4/8/24 18:29,210,-91.482237,35.703055
316,AR,Magnet Cove,34.449161,-92.837719,4/9/24 0:13,4/8/24 17:17,4/8/24 17:50,4/8/24 17:53,4/8/24 18:25,150,-92.837719,34.449161
317,AR,Malvern,34.373579,-92.82125,4/9/24 0:13,4/8/24 17:17,4/8/24 17:50,4/8/24 17:52,4/8/24 18:25,150,-92.82125,34.373579
318,AR,Mammoth Spring,36.49241,-91.541067,4/9/24 0:13,4/8/24 17:22,4/8/24 17:54,4/8/24 17:58,4/8/24 18:29,210,-91.541067,36.49241
319,AR,Mansfield,35.063915,-94.234269,4/9/24 0:13,4/8/24 17:16,4/8/24 17:48,4/8/24 17:51,4/8/24 18:24,180,-94.234269,35.063915
320,AR,Marmaduke,36.190028,-90.385061,4/9/24 0:13,4/8/24 17:24,4/8/24 17:56,4/8/24 17:59,4/8/24 18:31,180,-90.385061,36.190028
321,AR,Marshall,35.908461,-92.646498,4/9/24 0:13,4/8/24 17:20,4/8/24 17:51,4/8/24 17:55,4/8/24 18:27,210,-92.646498,35.908461
322,AR,Maumelle,34.852344,-92.399995,4/9/24 0:13,4/8/24 17:19,4/8/24 17:51,4/8/24 17:54,4/8/24 18:26,180,-92.399995,34.852344
323,AR,Mayflower,34.966196,-92.426728,4/9/24 0:13,4/8/24 17:19,4/8/24 17:51,4/8/24 17:54,4/8/24 18:26,210,-92.426728,34.966196
324,AR,Maynard,36.421493,-90.901804,4/9/24 0:13,4/8/24 17:23,4/8/24 17:55,4/8/24 17:59,4/8/24 18:30,240,-90.901804,36.421493
325,AR,Melbourne,36.063971,-91.88152,4/9/24 0:13,4/8/24 17:21,4/8/24 17:53,4/8/24 17:57,4/8/24 18:28,240,-91.88152,36.063971
326,AR,Mena,34.580834,-94.237096,4/9/24 0:13,4/8/24 17:15,4/8/24 17:47,4/8/24 17:51,4/8/24 18:23,240,-94.237096,34.580834
327,AR,Menifee,35.149702,-92.55042,4/9/24 0:13,4/8/24 17:19,4/8/24 17:50,4/8/24 17:55,4/8/24 18:26,240,-92.55042,35.149702
328,AR,Midland,35.092403,-94.352955,4/9/24 0:13,4/8/24 17:16,4/8/24 17:48,4/8/24 17:51,4/8/24 18:23,150,-94.352955,35.092403
329,AR,Midway,36.39224,-92.475532,4/9/24 0:13,4/8/24 17:21,4/8/24 17:53,4/8/24 17:56,4/8/24 18:28,150,-92.475532,36.39224
330,AR,Midway,34.249893,-92.973433,4/9/24 0:13,4/8/24 17:17,4/8/24 17:49,4/8/24 17:52,4/8/24 18:25,150,-92.973433,34.249893
331,AR,Mineral Springs,33.877723,-93.921386,4/9/24 0:13,4/8/24 17:15,4/8/24 17:47,4/8/24 17:50,4/8/24 18:23,210,-93.921386,33.877723
332,AR,Minturn,35.976417,-91.027188,4/9/24 0:13,4/8/24 17:22,4/8/24 17:54,4/8/24 17:58,4/8/24 18:30,210,-91.027188,35.976417
333,AR,Walnut Ridge,36.084782,-90.946837,4/9/24 0:13,4/8/24 17:23,4/8/24 17:54,4/8/24 17:58,4/8/24 18:30,210,-90.946837,36.084782
334,AR,Ward,35.013782,-91.957727,4/9/24 0:13,4/8/24 17:19,4/8/24 17:52,4/8/24 17:55,4/8/24 18:27,150,-91.957727,35.013782
335,AR,Warm Springs,36.483148,-91.049008,4/9/24 0:13,4/8/24 17:23,4/8/24 17:54,4/8/24 17:59,4/8/24 18:30,240,-91.049008,36.483148
336,AR,Washington,33.772882,-93.683293,4/9/24 0:13,4/8/24 17:15,4/8/24 17:47,4/8/24 17:50,4/8/24 18:23,150,-93.683293,33.772882
337,AR,Wayton,35.919363,-93.259588,4/9/24 0:13,4/8/24 17:19,4/8/24 17:51,4/8/24 17:54,4/8/24 18:26,120,-93.259588,35.919363
338,AR,Weiner,35.619714,-90.905303,4/9/24 0:13,4/8/24 17:22,4/8/24 17:55,4/8/24 17:57,4/8/24 18:29,90,-90.905303,35.619714
339,AR,Weldon,35.447994,-91.231606,4/9/24 0:13,4/8/24 17:21,4/8/24 17:54,4/8/24 17:56,4/8/24 18:29,120,-91.231606,35.447994
340,AR,Western Grove,36.101118,-92.954554,4/9/24 0:13,4/8/24 17:20,4/8/24 17:52,4/8/24 17:54,4/8/24 18:27,150,-92.954554,36.101118
341,AR,West Point,35.203307,-91.609897,4/9/24 0:13,4/8/24 17:20,4/8/24 17:53,4/8/24 17:55,4/8/24 18:28,120,-91.609897,35.203307
342,AR,Wickes,34.299736,-94.327252,4/9/24 0:13,4/8/24 17:15,4/8/24 17:46,4/8/24 17:51,4/8/24 18:23,240,-94.327252,34.299736
343,AR,Wiederkehr Village,35.477705,-93.764725,4/9/24 0:13,4/8/24 17:17,4/8/24 17:50,4/8/24 17:52,4/8/24 18:25,150,-93.764725,35.477705
344,AR,Wilburn,35.508788,-91.888375,4/9/24 0:13,4/8/24 17:20,4/8/24 17:52,4/8/24 17:56,4/8/24 18:28,210,-91.888375,35.508788
345,AR,Williford,36.251832,-91.360457,4/9/24 0:13,4/8/24 17:22,4/8/24 17:54,4/8/24 17:58,4/8/24 18:29,240,-91.360457,36.251832
346,AR,Wilton,33.738728,-94.147987,4/9/24 0:13,4/8/24 17:14,4/8/24 17:46,4/8/24 17:50,4/8/24 18:22,210,-94.147987,33.738728
347,AR,Winthrop,33.830837,-94.354222,4/9/24 0:13,4/8/24 17:14,4/8/24 17:46,4/8/24 17:50,4/8/24 18:22,240,-94.354222,33.830837
348,AR,Witts Springs,35.770268,-92.882285,4/9/24 0:13,4/8/24 17:19,4/8/24 17:51,4/8/24 17:55,4/8/24 18:27,210,-92.882285,35.770268
349,AR,Wooster,35.199919,-92.450204,4/9/24 0:13,4/8/24 17:19,4/8/24 17:51,4/8/24 17:55,4/8/24 18:27,240,-92.450204,35.199919
350,AR,Wrightsville,34.620714,-92.219607,4/9/24 0:13,4/8/24 17:18,4/8/24 17:52,4/8/24 17:53,4/8/24 18:26,30,-92.219607,34.620714
351,AR,Yarborough Landing,33.718829,-94.009261,4/9/24 0:13,4/8/24 17:14,4/8/24 17:46,4/8/24 17:50,4/8/24 18:22,180,-94.009261,33.718829
352,AR,Yellville,36.228846,-92.686123,4/9/24 0:13,4/8/24 17:20,4/8/24 17:52,4/8/24 17:55,4/8/24 18:27,150,-92.686123,36.228846
353,AR,Zinc,36.283959,-92.914422,4/9/24 0:13,4/8/24 17:20,4/8/24 17:53,4/8/24 17:54,4/8/24 18:27,60,-92.914422,36.283959
354,IL,Chester,37.925757,-89.827704,4/9/24 0:13,4/8/24 17:27,4/8/24 17:58,4/8/24 18:02,4/8/24 18:33,180,-89.827704,37.925757
355,IL,Dix,38.444474,-88.945963,4/9/24 0:13,4/8/24 17:29,4/8/24 18:00,4/8/24 18:04,4/8/24 18:35,180,-88.945963,38.444474
356,IL,Flat Rock,38.903681,-87.673398,4/9/24 0:13,4/8/24 17:31,4/8/24 18:02,4/8/24 18:06,4/8/24 18:37,210,-87.673398,38.903681
357,IL,Bridgeport,38.709948,-87.758646,4/9/24 0:13,4/8/24 17:31,4/8/24 18:02,4/8/24 18:06,4/8/24 18:37,240,-87.758646,38.709948
358,IL,Flora,38.665617,-88.473844,4/9/24 0:13,4/8/24 17:30,4/8/24 18:01,4/8/24 18:05,4/8/24 18:36,210,-88.473844,38.665617
359,IL,Dongola,37.357109,-89.164989,4/9/24 0:13,4/8/24 17:27,4/8/24 17:59,4/8/24 18:02,4/8/24 18:34,210,-89.164989,37.357109
360,IL,Dowell,37.939573,-89.239529,4/9/24 0:13,4/8/24 17:28,4/8/24 17:59,4/8/24 18:03,4/8/24 18:34,210,-89.239529,37.939573
361,IL,Du Bois,38.22139,-89.212674,4/9/24 0:13,4/8/24 17:28,4/8/24 18:00,4/8/24 18:03,4/8/24 18:35,210,-89.212674,38.22139
362,IL,Dundas,38.83459,-88.085491,4/9/24 0:13,4/8/24 17:31,4/8/24 18:02,4/8/24 18:06,4/8/24 18:37,210,-88.085491,38.83459
363,IL,Du Quoin,38.001719,-89.23284,4/9/24 0:13,4/8/24 17:28,4/8/24 17:59,4/8/24 18:03,4/8/24 18:34,210,-89.23284,38.001719
364,IL,East Cape Girardeau,37.294005,-89.480188,4/9/24 0:13,4/8/24 17:27,4/8/24 17:58,4/8/24 18:02,4/8/24 18:33,240,-89.480188,37.294005
365,IL,Eddyville,37.500191,-88.585059,4/9/24 0:13,4/8/24 17:28,4/8/24 18:00,4/8/24 18:03,4/8/24 18:35,210,-88.585059,37.500191
366,IL,Edgewood,38.921865,-88.664076,4/9/24 0:13,4/8/24 17:30,4/8/24 18:02,4/8/24 18:04,4/8/24 18:36,120,-88.664076,38.921865
367,IL,Eldorado,37.811726,-88.441578,4/9/24 0:13,4/8/24 17:29,4/8/24 18:00,4/8/24 18:04,4/8/24 18:35,210,-88.441578,37.811726
368,IL,Elizabethtown,37.449937,-88.303521,4/9/24 0:13,4/8/24 17:29,4/8/24 18:01,4/8/24 18:03,4/8/24 18:35,150,-88.303521,37.449937
369,IL,Elkville,37.909404,-89.237216,4/9/24 0:13,4/8/24 17:28,4/8/24 17:59,4/8/24 18:03,4/8/24 18:34,240,-89.237216,37.909404
370,IL,Ellis Grove,38.010185,-89.91261,4/9/24 0:13,4/8/24 17:27,4/8/24 17:59,4/8/24 18:02,4/8/24 18:33,150,-89.91261,38.010185
371,IL,Energy,37.770658,-89.023869,4/9/24 0:13,4/8/24 17:28,4/8/24 17:59,4/8/24 18:03,4/8/24 18:34,240,-89.023869,37.770658
372,IL,Enfield,38.100875,-88.338107,4/9/24 0:13,4/8/24 17:29,4/8/24 18:01,4/8/24 18:05,4/8/24 18:36,240,-88.338107,38.100875
373,IL,Equality,37.736911,-88.342211,4/9/24 0:13,4/8/24 17:29,4/8/24 18:00,4/8/24 18:04,4/8/24 18:35,210,-88.342211,37.736911
374,IL,Evansville,38.089045,-89.932543,4/9/24 0:13,4/8/24 17:27,4/8/24 17:59,4/8/24 18:01,4/8/24 18:33,150,-89.932543,38.089045
375,IL,Ewing,38.089357,-88.85219,4/9/24 0:13,4/8/24 17:29,4/8/24 18:00,4/8/24 18:04,4/8/24 18:35,240,-88.85219,38.089357
376,IL,Fairfield,38.380632,-88.372524,4/9/24 0:13,4/8/24 17:30,4/8/24 18:01,4/8/24 18:05,4/8/24 18:36,240,-88.372524,38.380632
377,IL,Farina,38.829766,-88.78093,4/9/24 0:13,4/8/24 17:30,4/8/24 18:02,4/8/24 18:04,4/8/24 18:36,120,-88.78093,38.829766
378,IL,Ashley,38.328335,-89.188951,4/9/24 0:13,4/8/24 17:28,4/8/24 18:00,4/8/24 18:03,4/8/24 18:35,180,-89.188951,38.328335
379,IL,Christopher,37.970999,-89.052985,4/9/24 0:13,4/8/24 17:28,4/8/24 17:59,4/8/24 18:03,4/8/24 18:35,240,-89.052985,37.970999
380,IL,Cisne,38.51391,-88.43714,4/9/24 0:13,4/8/24 17:30,4/8/24 18:01,4/8/24 18:05,4/8/24 18:36,210,-88.43714,38.51391
381,IL,Claremont,38.717594,-87.972866,4/9/24 0:13,4/8/24 17:31,4/8/24 18:02,4/8/24 18:06,4/8/24 18:37,210,-87.972866,38.717594
382,IL,Clay City,38.685793,-88.348621,4/9/24 0:13,4/8/24 17:30,4/8/24 18:01,4/8/24 18:05,4/8/24 18:36,210,-88.348621,38.685793
383,IL,Cobden,37.533303,-89.254406,4/9/24 0:13,4/8/24 17:27,4/8/24 17:59,4/8/24 18:03,4/8/24 18:34,240,-89.254406,37.533303
384,IL,Colp,37.80735,-89.078531,4/9/24 0:13,4/8/24 17:28,4/8/24 17:59,4/8/24 18:03,4/8/24 18:34,240,-89.078531,37.80735
385,IL,Coulterville,38.185079,-89.604316,4/9/24 0:13,4/8/24 17:28,4/8/24 17:59,4/8/24 18:02,4/8/24 18:34,150,-89.604316,38.185079
386,IL,Crab Orchard,37.723611,-88.810281,4/9/24 0:13,4/8/24 17:28,4/8/24 17:59,4/8/24 18:03,4/8/24 18:35,240,-88.810281,37.723611
387,IL,Crainville,37.753795,-89.059121,4/9/24 0:13,4/8/24 17:28,4/8/24 17:59,4/8/24 18:03,4/8/24 18:34,240,-89.059121,37.753795
388,IL,Creal Springs,37.619847,-88.837446,4/9/24 0:13,4/8/24 17:28,4/8/24 17:59,4/8/24 18:03,4/8/24 18:35,210,-88.837446,37.619847
389,IL,Crossville,38.162569,-88.064355,4/9/24 0:13,4/8/24 17:30,4/8/24 18:01,4/8/24 18:05,4/8/24 18:36,240,-88.064355,38.162569
390,IL,Cutler,38.032549,-89.567572,4/9/24 0:13,4/8/24 17:27,4/8/24 17:59,4/8/24 18:02,4/8/24 18:34,180,-89.567572,38.032549
391,IL,Cypress,37.365722,-89.018887,4/9/24 0:13,4/8/24 17:27,4/8/24 17:59,4/8/24 18:03,4/8/24 18:34,210,-89.018887,37.365722
392,IL,Dahlgren,38.198052,-88.684687,4/9/24 0:13,4/8/24 17:29,4/8/24 18:00,4/8/24 18:04,4/8/24 18:35,240,-88.684687,38.198052
393,IL,Darmstadt,38.318739,-89.729237,4/9/24 0:13,4/8/24 17:28,4/8/24 18:00,4/8/24 18:02,4/8/24 18:34,90,-89.729237,38.318739
394,IL,De Soto,37.815706,-89.226966,4/9/24 0:13,4/8/24 17:28,4/8/24 17:59,4/8/24 18:03,4/8/24 18:34,240,-89.226966,37.815706
395,IL,Dieterich,39.060311,-88.3814,4/9/24 0:13,4/8/24 17:31,4/8/24 18:02,4/8/24 18:05,4/8/24 18:36,120,-88.3814,39.060311
396,IL,Brookport,37.125817,-88.625983,4/9/24 0:13,4/8/24 17:28,4/8/24 18:00,4/8/24 18:02,4/8/24 18:34,120,-88.625983,37.125817
397,IL,Broughton,37.933933,-88.462433,4/9/24 0:13,4/8/24 17:29,4/8/24 18:00,4/8/24 18:04,4/8/24 18:35,240,-88.462433,37.933933
398,IL,Browns,38.377532,-87.983159,4/9/24 0:13,4/8/24 17:30,4/8/24 18:01,4/8/24 18:06,4/8/24 18:36,240,-87.983159,38.377532
399,IL,Freeman Spur,37.859966,-88.999861,4/9/24 0:13,4/8/24 17:28,4/8/24 17:59,4/8/24 18:03,4/8/24 18:35,240,-88.999861,37.859966
400,IL,Galatia,37.841977,-88.616482,4/9/24 0:13,4/8/24 17:29,4/8/24 18:00,4/8/24 18:04,4/8/24 18:35,240,-88.616482,37.841977
401,IL,Golconda,37.362137,-88.486721,4/9/24 0:13,4/8/24 17:28,4/8/24 18:00,4/8/24 18:03,4/8/24 18:35,150,-88.486721,37.362137
402,IL,Golden Gate,38.358877,-88.204677,4/9/24 0:13,4/8/24 17:30,4/8/24 18:01,4/8/24 18:05,4/8/24 18:36,240,-88.204677,38.358877
403,IL,Goreville,37.555077,-88.973533,4/9/24 0:13,4/8/24 17:28,4/8/24 17:59,4/8/24 18:03,4/8/24 18:34,240,-88.973533,37.555077
404,IL,Gorham,37.717871,-89.477939,4/9/24 0:13,4/8/24 17:27,4/8/24 17:58,4/8/24 18:02,4/8/24 18:34,240,-89.477939,37.717871
405,IL,Grand Tower,37.64168,-89.506723,4/9/24 0:13,4/8/24 17:27,4/8/24 17:58,4/8/24 18:02,4/8/24 18:34,240,-89.506723,37.64168
406,IL,Grayville,38.255135,-87.996927,4/9/24 0:13,4/8/24 17:30,4/8/24 18:01,4/8/24 18:05,4/8/24 18:36,240,-87.996927,38.255135
407,IL,Greenup,39.247946,-88.160025,4/9/24 0:13,4/8/24 17:31,4/8/24 18:03,4/8/24 18:05,4/8/24 18:37,90,-88.160025,39.247946
408,IL,Ava,37.888524,-89.496305,4/9/24 0:13,4/8/24 17:27,4/8/24 17:59,4/8/24 18:03,4/8/24 18:34,210,-89.496305,37.888524
409,IL,Buckner,37.981015,-89.015659,4/9/24 0:13,4/8/24 17:28,4/8/24 17:59,4/8/24 18:03,4/8/24 18:35,240,-89.015659,37.981015
410,IL,Baldwin,38.183829,-89.845152,4/9/24 0:13,4/8/24 17:27,4/8/24 17:59,4/8/24 18:02,4/8/24 18:34,120,-89.845152,38.183829
411,IL,Buncombe,37.471116,-88.97466,4/9/24 0:13,4/8/24 17:28,4/8/24 17:59,4/8/24 18:03,4/8/24 18:34,210,-88.97466,37.471116
412,IL,Bartelso,38.538189,-89.461485,4/9/24 0:13,4/8/24 17:28,4/8/24 18:01,4/8/24 18:02,4/8/24 18:34,60,-89.461485,38.538189
413,IL,Burnt Prairie,38.250865,-88.25826,4/9/24 0:13,4/8/24 17:30,4/8/24 18:01,4/8/24 18:05,4/8/24 18:36,240,-88.25826,38.250865
414,IL,Bush,37.841929,-89.129906,4/9/24 0:13,4/8/24 17:28,4/8/24 17:59,4/8/24 18:03,4/8/24 18:34,240,-89.129906,37.841929
415,IL,Cairo,37.006288,-89.18288,4/9/24 0:13,4/8/24 17:27,4/8/24 17:59,4/8/24 18:02,4/8/24 18:33,180,-89.18288,37.006288
416,IL,Calhoun,38.651161,-88.044023,4/9/24 0:13,4/8/24 17:31,4/8/24 18:02,4/8/24 18:06,4/8/24 18:37,210,-88.044023,38.651161
417,IL,Belknap,37.3226,-88.93971,4/9/24 0:13,4/8/24 17:28,4/8/24 17:59,4/8/24 18:03,4/8/24 18:34,210,-88.93971,37.3226
418,IL,Belle Prairie City,38.22349,-88.555741,4/9/24 0:13,4/8/24 17:29,4/8/24 18:00,4/8/24 18:04,4/8/24 18:35,240,-88.555741,38.22349
419,IL,Belle Rive,38.231725,-88.74049,4/9/24 0:13,4/8/24 17:29,4/8/24 18:00,4/8/24 18:04,4/8/24 18:35,210,-88.74049,38.231725
420,IL,Cambria,37.779364,-89.119356,4/9/24 0:13,4/8/24 17:28,4/8/24 17:59,4/8/24 18:03,4/8/24 18:34,240,-89.119356,37.779364
421,IL,Bellmont,38.383026,-87.910604,4/9/24 0:13,4/8/24 17:30,4/8/24 18:01,4/8/24 18:06,4/8/24 18:37,240,-87.910604,38.383026
422,IL,Campbell Hill,37.930783,-89.551387,4/9/24 0:13,4/8/24 17:27,4/8/24 17:59,4/8/24 18:02,4/8/24 18:34,210,-89.551387,37.930783
423,IL,Addieville,38.391299,-89.486455,4/9/24 0:13,4/8/24 17:28,4/8/24 18:00,4/8/24 18:02,4/8/24 18:34,120,-89.486455,38.391299
424,IL,Benton,38.013187,-88.917281,4/9/24 0:13,4/8/24 17:28,4/8/24 18:00,4/8/24 18:04,4/8/24 18:35,240,-88.917281,38.013187
425,IL,Albion,38.376598,-88.057625,4/9/24 0:13,4/8/24 17:30,4/8/24 18:01,4/8/24 18:05,4/8/24 18:36,240,-88.057625,38.376598
426,IL,Carbondale,37.722062,-89.223664,4/9/24 0:13,4/8/24 17:28,4/8/24 17:59,4/8/24 18:03,4/8/24 18:34,240,-89.223664,37.722062
427,IL,Allendale,38.527627,-87.710344,4/9/24 0:13,4/8/24 17:31,4/8/24 18:02,4/8/24 18:06,4/8/24 18:37,240,-87.710344,38.527627
428,IL,Alma,38.722888,-88.911695,4/9/24 0:13,4/8/24 17:29,4/8/24 18:01,4/8/24 18:04,4/8/24 18:35,120,-88.911695,38.722888
429,IL,Alto Pass,37.573654,-89.319546,4/9/24 0:13,4/8/24 17:27,4/8/24 17:58,4/8/24 18:03,4/8/24 18:34,240,-89.319546,37.573654
430,IL,Anna,37.46106,-89.237478,4/9/24 0:13,4/8/24 17:27,4/8/24 17:58,4/8/24 18:03,4/8/24 18:34,240,-89.237478,37.46106
431,IL,Annapolis,39.143046,-87.817129,4/9/24 0:13,4/8/24 17:32,4/8/24 18:03,4/8/24 18:06,4/8/24 18:37,180,-87.817129,39.143046
432,IL,Carlyle,38.622266,-89.375442,4/9/24 0:13,4/8/24 17:29,4/8/24 18:01,4/8/24 18:02,4/8/24 18:35,30,-89.375442,38.622266
433,IL,Carmi,38.08615,-88.172062,4/9/24 0:13,4/8/24 17:30,4/8/24 18:01,4/8/24 18:05,4/8/24 18:36,240,-88.172062,38.08615
434,IL,Blairsville,37.810539,-89.123826,4/9/24 0:13,4/8/24 17:28,4/8/24 17:59,4/8/24 18:03,4/8/24 18:34,240,-89.123826,37.810539
435,IL,Carrier Mills,37.688601,-88.628976,4/9/24 0:13,4/8/24 17:28,4/8/24 18:00,4/8/24 18:04,4/8/24 18:35,210,-88.628976,37.688601
436,IL,Carterville,37.762798,-89.084481,4/9/24 0:13,4/8/24 17:28,4/8/24 17:59,4/8/24 18:03,4/8/24 18:34,240,-89.084481,37.762798
437,IL,Casey,39.30542,-87.985307,4/9/24 0:13,4/8/24 17:31,4/8/24 18:03,4/8/24 18:05,4/8/24 18:37,120,-87.985307,39.30542
438,IL,Bluford,38.32607,-88.734791,4/9/24 0:13,4/8/24 17:29,4/8/24 18:00,4/8/24 18:04,4/8/24 18:35,210,-88.734791,38.32607
439,IL,Cave-In-Rock,37.471016,-88.165762,4/9/24 0:13,4/8/24 17:29,4/8/24 18:01,4/8/24 18:03,4/8/24 18:35,120,-88.165762,37.471016
440,IL,Bone Gap,38.444882,-87.997571,4/9/24 0:13,4/8/24 17:30,4/8/24 18:01,4/8/24 18:06,4/8/24 18:36,240,-87.997571,38.444882
441,IL,Central City,38.548549,-89.128298,4/9/24 0:13,4/8/24 17:29,4/8/24 18:01,4/8/24 18:03,4/8/24 18:35,150,-89.128298,38.548549
442,IL,Centralia,38.522066,-89.123533,4/9/24 0:13,4/8/24 17:29,4/8/24 18:00,4/8/24 18:03,4/8/24 18:35,150,-89.123533,38.522066
443,IL,Bonnie,38.203001,-88.906772,4/9/24 0:13,4/8/24 17:29,4/8/24 18:00,4/8/24 18:04,4/8/24 18:35,210,-88.906772,38.203001
444,IL,Noble,38.698126,-88.218784,4/9/24 0:13,4/8/24 17:30,4/8/24 18:02,4/8/24 18:05,4/8/24 18:36,210,-88.218784,38.698126
445,IL,Rose Hill,39.104302,-88.149888,4/9/24 0:13,4/8/24 17:31,4/8/24 18:03,4/8/24 18:05,4/8/24 18:37,150,-88.149888,39.104302
446,IL,Jewett,39.207709,-88.24307,4/9/24 0:13,4/8/24 17:31,4/8/24 18:03,4/8/24 18:05,4/8/24 18:37,90,-88.24307,39.207709
447,IL,Norris City,37.978636,-88.327778,4/9/24 0:13,4/8/24 17:29,4/8/24 18:00,4/8/24 18:04,4/8/24 18:36,240,-88.327778,37.978636
448,IL,Johnsonville,38.520873,-88.538223,4/9/24 0:13,4/8/24 17:30,4/8/24 18:01,4/8/24 18:05,4/8/24 18:36,210,-88.538223,38.520873
449,IL,Johnston City,37.821035,-88.929295,4/9/24 0:13,4/8/24 17:28,4/8/24 17:59,4/8/24 18:03,4/8/24 18:35,240,-88.929295,37.821035
450,IL,Rosiclare,37.425633,-88.352263,4/9/24 0:13,4/8/24 17:29,4/8/24 18:00,4/8/24 18:03,4/8/24 18:35,150,-88.352263,37.425633
451,IL,Jonesboro,37.450952,-89.266574,4/9/24 0:13,4/8/24 17:27,4/8/24 17:58,4/8/24 18:03,4/8/24 18:34,240,-89.266574,37.450952
452,IL,Joppa,37.209221,-88.847034,4/9/24 0:13,4/8/24 17:28,4/8/24 17:59,4/8/24 18:02,4/8/24 18:34,180,-88.847034,37.209221
453,IL,North City,37.991159,-89.063935,4/9/24 0:13,4/8/24 17:28,4/8/24 17:59,4/8/24 18:03,4/8/24 18:35,240,-89.063935,37.991159
454,IL,Percy,38.014674,-89.618105,4/9/24 0:13,4/8/24 17:27,4/8/24 17:59,4/8/24 18:02,4/8/24 18:34,180,-89.618105,38.014674
455,IL,Royalton,37.877644,-89.113572,4/9/24 0:13,4/8/24 17:28,4/8/24 17:59,4/8/24 18:03,4/8/24 18:34,240,-89.113572,37.877644
456,IL,Ruma,38.130604,-90.000327,4/9/24 0:13,4/8/24 17:27,4/8/24 17:59,4/8/24 18:01,4/8/24 18:33,120,-90.000327,38.130604
457,IL,Russellville,38.818609,-87.53012,4/9/24 0:13,4/8/24 17:32,4/8/24 18:03,4/8/24 18:07,4/8/24 18:38,240,-87.53012,38.818609
458,IL,Sailor Springs,38.764462,-88.360228,4/9/24 0:13,4/8/24 17:30,4/8/24 18:02,4/8/24 18:05,4/8/24 18:36,180,-88.360228,38.764462
459,IL,Ste. Marie,38.930045,-88.027748,4/9/24 0:13,4/8/24 17:31,4/8/24 18:02,4/8/24 18:06,4/8/24 18:37,180,-88.027748,38.930045
460,IL,St. Francisville,38.591913,-87.647546,4/9/24 0:13,4/8/24 17:31,4/8/24 18:02,4/8/24 18:06,4/8/24 18:37,240,-87.647546,38.591913
461,IL,St. Johns,38.034854,-89.238563,4/9/24 0:13,4/8/24 17:28,4/8/24 17:59,4/8/24 18:03,4/8/24 18:34,210,-89.238563,38.034854
462,IL,St. Libory,38.363067,-89.718104,4/9/24 0:13,4/8/24 17:28,4/8/24 18:00,4/8/24 18:01,4/8/24 18:34,60,-89.718104,38.363067
463,IL,St. Peter,38.867559,-88.850386,4/9/24 0:13,4/8/24 17:30,4/8/24 18:02,4/8/24 18:03,4/8/24 18:36,90,-88.850386,38.867559
464,IL,Salem,38.627537,-88.959448,4/9/24 0:13,4/8/24 17:29,4/8/24 18:01,4/8/24 18:04,4/8/24 18:35,150,-88.959448,38.627537
465,IL,Sandoval,38.612137,-89.119345,4/9/24 0:13,4/8/24 17:29,4/8/24 18:01,4/8/24 18:03,4/8/24 18:35,120,-89.119345,38.612137
466,IL,Sesser,38.090336,-89.050813,4/9/24 0:13,4/8/24 17:28,4/8/24 18:00,4/8/24 18:03,4/8/24 18:35,210,-89.050813,38.090336
467,IL,Shawneetown,37.715906,-88.18671,4/9/24 0:13,4/8/24 17:29,4/8/24 18:01,4/8/24 18:04,4/8/24 18:36,180,-88.18671,37.715906
468,IL,Simpson,37.467445,-88.757879,4/9/24 0:13,4/8/24 17:28,4/8/24 17:59,4/8/24 18:03,4/8/24 18:35,210,-88.757879,37.467445
469,IL,Sims,38.361844,-88.535465,4/9/24 0:13,4/8/24 17:29,4/8/24 18:01,4/8/24 18:05,4/8/24 18:36,210,-88.535465,38.361844
470,IL,Venedy,38.396607,-89.645643,4/9/24 0:13,4/8/24 17:28,4/8/24 18:00,4/8/24 18:02,4/8/24 18:34,90,-89.645643,38.396607
471,IL,Junction,37.723368,-88.237671,4/9/24 0:13,4/8/24 17:29,4/8/24 18:01,4/8/24 18:04,4/8/24 18:36,210,-88.237671,37.723368
472,IL,Junction City,38.575486,-89.126799,4/9/24 0:13,4/8/24 17:29,4/8/24 18:01,4/8/24 18:03,4/8/24 18:35,150,-89.126799,38.575486
473,IL,Woodlawn,38.328269,-89.034467,4/9/24 0:13,4/8/24 17:29,4/8/24 18:00,4/8/24 18:04,4/8/24 18:35,210,-89.034467,38.328269
474,IL,Vergennes,37.901933,-89.340158,4/9/24 0:13,4/8/24 17:28,4/8/24 17:59,4/8/24 18:03,4/8/24 18:34,210,-89.340158,37.901933
475,IL,Sparta,38.139419,-89.730509,4/9/24 0:13,4/8/24 17:27,4/8/24 17:59,4/8/24 18:02,4/8/24 18:34,150,-89.730509,38.139419
476,IL,Metropolis,37.149639,-88.687354,4/9/24 0:13,4/8/24 17:28,4/8/24 18:00,4/8/24 18:02,4/8/24 18:34,120,-88.687354,37.149639
477,IL,Mill Creek,37.340904,-89.253148,4/9/24 0:13,4/8/24 17:27,4/8/24 17:58,4/8/24 18:02,4/8/24 18:34,210,-89.253148,37.340904
478,IL,Mill Shoals,38.249536,-88.345683,4/9/24 0:13,4/8/24 17:30,4/8/24 18:01,4/8/24 18:05,4/8/24 18:36,240,-88.345683,38.249536
479,IL,Montrose,39.166026,-88.378046,4/9/24 0:13,4/8/24 17:31,4/8/24 18:03,4/8/24 18:04,4/8/24 18:36,60,-88.378046,39.166026
480,IL,Mound City,37.085676,-89.163005,4/9/24 0:13,4/8/24 17:27,4/8/24 17:59,4/8/24 18:02,4/8/24 18:34,180,-89.163005,37.085676
481,IL,Mounds,37.116193,-89.202885,4/9/24 0:13,4/8/24 17:27,4/8/24 17:58,4/8/24 18:02,4/8/24 18:34,210,-89.202885,37.116193
482,IL,Mount Carmel,38.419047,-87.769792,4/9/24 0:13,4/8/24 17:31,4/8/24 18:02,4/8/24 18:06,4/8/24 18:37,240,-87.769792,38.419047
483,IL,Mount Erie,38.514641,-88.232391,4/9/24 0:13,4/8/24 17:30,4/8/24 18:01,4/8/24 18:05,4/8/24 18:36,210,-88.232391,38.514641
484,IL,Mount Vernon,38.314205,-88.91747,4/9/24 0:13,4/8/24 17:29,4/8/24 18:00,4/8/24 18:04,4/8/24 18:35,210,-88.91747,38.314205
485,IL,Muddy,37.766811,-88.513894,4/9/24 0:13,4/8/24 17:29,4/8/24 18:00,4/8/24 18:04,4/8/24 18:35,210,-88.513894,37.766811
486,IL,Mulkeytown,37.973869,-89.108467,4/9/24 0:13,4/8/24 17:28,4/8/24 17:59,4/8/24 18:03,4/8/24 18:35,240,-89.108467,37.973869
487,IL,Murphysboro,37.767183,-89.33241,4/9/24 0:13,4/8/24 17:28,4/8/24 17:59,4/8/24 18:03,4/8/24 18:34,240,-89.33241,37.767183
488,IL,Nashville,38.353618,-89.377987,4/9/24 0:13,4/8/24 17:28,4/8/24 18:00,4/8/24 18:03,4/8/24 18:34,150,-89.377987,38.353618
489,IL,Nason,38.176022,-88.966263,4/9/24 0:13,4/8/24 17:29,4/8/24 18:00,4/8/24 18:04,4/8/24 18:35,210,-88.966263,38.176022
490,IL,New Athens,38.318935,-89.873618,4/9/24 0:13,4/8/24 17:27,4/8/24 18:00,4/8/24 18:01,4/8/24 18:34,30,-89.873618,38.318935
491,IL,New Burnside,37.578216,-88.773281,4/9/24 0:13,4/8/24 17:28,4/8/24 17:59,4/8/24 18:03,4/8/24 18:35,210,-88.773281,37.578216
492,IL,New Grand Chain,37.256384,-89.018628,4/9/24 0:13,4/8/24 17:27,4/8/24 17:59,4/8/24 18:02,4/8/24 18:34,210,-89.018628,37.256384
493,IL,New Haven,37.898433,-88.126763,4/9/24 0:13,4/8/24 17:30,4/8/24 18:01,4/8/24 18:05,4/8/24 18:36,210,-88.126763,37.898433
494,IL,New Minden,38.438033,-89.370419,4/9/24 0:13,4/8/24 17:28,4/8/24 18:00,4/8/24 18:03,4/8/24 18:34,150,-89.370419,38.438033
495,IL,Newton,38.987252,-88.164363,4/9/24 0:13,4/8/24 17:31,4/8/24 18:02,4/8/24 18:05,4/8/24 18:37,180,-88.164363,38.987252
496,IL,Vermilion,39.580177,-87.58795,4/9/24 0:13,4/8/24 17:32,4/8/24 18:04,4/8/24 18:06,4/8/24 18:38,90,-87.58795,39.580177
497,IL,Phillipstown,38.142881,-88.018108,4/9/24 0:13,4/8/24 17:30,4/8/24 18:01,4/8/24 18:05,4/8/24 18:36,210,-88.018108,38.142881
498,IL,Spillertown,37.765239,-88.923928,4/9/24 0:13,4/8/24 17:28,4/8/24 17:59,4/8/24 18:03,4/8/24 18:35,240,-88.923928,37.765239
499,IL,Springerton,38.178556,-88.355249,4/9/24 0:13,4/8/24 17:30,4/8/24 18:01,4/8/24 18:05,4/8/24 18:36,240,-88.355249,38.178556
500,IL,Hanaford,37.955201,-88.831018,4/9/24 0:13,4/8/24 17:28,4/8/24 18:00,4/8/24 18:04,4/8/24 18:35,240,-88.831018,37.955201
501,IL,Harrisburg,37.737717,-88.545818,4/9/24 0:13,4/8/24 17:29,4/8/24 18:00,4/8/24 18:04,4/8/24 18:35,210,-88.545818,37.737717
502,IL,Harrison,37.797557,-89.335972,4/9/24 0:13,4/8/24 17:28,4/8/24 17:59,4/8/24 18:03,4/8/24 18:34,240,-89.335972,37.797557
503,IL,Herrin,37.798389,-89.03065,4/9/24 0:13,4/8/24 17:28,4/8/24 17:59,4/8/24 18:03,4/8/24 18:34,240,-89.03065,37.798389
504,IL,Hidalgo,39.155917,-88.149096,4/9/24 0:13,4/8/24 17:31,4/8/24 18:03,4/8/24 18:05,4/8/24 18:37,150,-88.149096,39.155917
505,IL,Hoffman,38.540484,-89.264342,4/9/24 0:13,4/8/24 17:29,4/8/24 18:01,4/8/24 18:03,4/8/24 18:35,120,-89.264342,38.540484
506,IL,Hoyleton,38.445703,-89.272101,4/9/24 0:13,4/8/24 17:28,4/8/24 18:00,4/8/24 18:03,4/8/24 18:35,150,-89.272101,38.445703
507,IL,Huey,38.605285,-89.289973,4/9/24 0:13,4/8/24 17:29,4/8/24 18:01,4/8/24 18:03,4/8/24 18:35,90,-89.289973,38.605285
508,IL,Hurst,37.837031,-89.147364,4/9/24 0:13,4/8/24 17:28,4/8/24 17:59,4/8/24 18:03,4/8/24 18:34,240,-89.147364,37.837031
509,IL,Hutsonville,39.109569,-87.664676,4/9/24 0:13,4/8/24 17:32,4/8/24 18:03,4/8/24 18:06,4/8/24 18:38,210,-87.664676,39.109569
510,IL,Ina,38.149899,-88.904019,4/9/24 0:13,4/8/24 17:29,4/8/24 18:00,4/8/24 18:04,4/8/24 18:35,210,-88.904019,38.149899
511,IL,Iola,38.834059,-88.627837,4/9/24 0:13,4/8/24 17:30,4/8/24 18:02,4/8/24 18:04,4/8/24 18:36,150,-88.627837,38.834059
512,IL,Irvington,38.438393,-89.160268,4/9/24 0:13,4/8/24 17:29,4/8/24 18:00,4/8/24 18:03,4/8/24 18:35,180,-89.160268,38.438393
513,IL,Iuka,38.617806,-88.788263,4/9/24 0:13,4/8/24 17:29,4/8/24 18:01,4/8/24 18:04,4/8/24 18:35,180,-88.788263,38.617806
514,IL,Jeffersonville,38.442503,-88.403968,4/9/24 0:13,4/8/24 17:30,4/8/24 18:01,4/8/24 18:05,4/8/24 18:36,210,-88.403968,38.442503
515,IL,Karnak,37.294168,-88.976066,4/9/24 0:13,4/8/24 17:27,4/8/24 17:59,4/8/24 18:03,4/8/24 18:34,210,-88.976066,37.294168
516,IL,Pinckneyville,38.086072,-89.327036,4/9/24 0:13,4/8/24 17:28,4/8/24 17:59,4/8/24 18:03,4/8/24 18:34,210,-89.327036,38.086072
517,IL,Kaskaskia,37.92128,-89.916325,4/9/24 0:13,4/8/24 17:27,4/8/24 17:58,4/8/24 18:02,4/8/24 18:33,180,-89.916325,37.92128
518,IL,Oakdale,38.264832,-89.503487,4/9/24 0:13,4/8/24 17:28,4/8/24 18:00,4/8/24 18:02,4/8/24 18:34,150,-89.503487,38.264832
519,IL,Xenia,38.637264,-88.637515,4/9/24 0:13,4/8/24 17:30,4/8/24 18:01,4/8/24 18:04,4/8/24 18:36,180,-88.637515,38.637264
520,IL,Keenes,38.338583,-88.641916,4/9/24 0:13,4/8/24 17:29,4/8/24 18:00,4/8/24 18:04,4/8/24 18:35,210,-88.641916,38.338583
521,IL,Vienna,37.413624,-88.886577,4/9/24 0:13,4/8/24 17:28,4/8/24 17:59,4/8/24 18:03,4/8/24 18:34,210,-88.886577,37.413624
522,IL,Yale,39.120294,-88.024559,4/9/24 0:13,4/8/24 17:31,4/8/24 18:03,4/8/24 18:06,4/8/24 18:37,150,-88.024559,39.120294
523,IL,Keensburg,38.351831,-87.868261,4/9/24 0:13,4/8/24 17:30,4/8/24 18:02,4/8/24 18:06,4/8/24 18:37,240,-87.868261,38.351831
524,IL,Steeleville,38.008405,-89.662406,4/9/24 0:13,4/8/24 17:27,4/8/24 17:59,4/8/24 18:02,4/8/24 18:34,180,-89.662406,38.008405
525,IL,Stonefort,37.621542,-88.704066,4/9/24 0:13,4/8/24 17:28,4/8/24 18:00,4/8/24 18:03,4/8/24 18:35,210,-88.704066,37.621542
526,IL,Stoy,38.996791,-87.833559,4/9/24 0:13,4/8/24 17:31,4/8/24 18:02,4/8/24 18:06,4/8/24 18:37,210,-87.833559,38.996791
527,IL,Sumner,38.715378,-87.866692,4/9/24 0:13,4/8/24 17:31,4/8/24 18:02,4/8/24 18:06,4/8/24 18:37,210,-87.866692,38.715378
528,IL,Tamaroa,38.136342,-89.229266,4/9/24 0:13,4/8/24 17:28,4/8/24 17:59,4/8/24 18:03,4/8/24 18:34,210,-89.229266,38.136342
529,IL,Tamms,37.241541,-89.271329,4/9/24 0:13,4/8/24 17:27,4/8/24 17:58,4/8/24 18:02,4/8/24 18:34,210,-89.271329,37.241541
530,IL,Teutopolis,39.131998,-88.479564,4/9/24 0:13,4/8/24 17:31,4/8/24 18:03,4/8/24 18:04,4/8/24 18:36,30,-88.479564,39.131998
531,IL,Thebes,37.212416,-89.450657,4/9/24 0:13,4/8/24 17:27,4/8/24 17:58,4/8/24 18:02,4/8/24 18:33,210,-89.450657,37.212416
532,IL,Thompsonville,37.911304,-88.765018,4/9/24 0:13,4/8/24 17:29,4/8/24 18:00,4/8/24 18:04,4/8/24 18:35,240,-88.765018,37.911304
533,IL,Tilden,38.212024,-89.683675,4/9/24 0:13,4/8/24 17:28,4/8/24 17:59,4/8/24 18:02,4/8/24 18:34,150,-89.683675,38.212024
534,IL,Toledo,39.272782,-88.242187,4/9/24 0:13,4/8/24 17:31,4/8/24 18:03,4/8/24 18:04,4/8/24 18:37,30,-88.242187,39.272782
535,IL,Ullin,37.280226,-89.175797,4/9/24 0:13,4/8/24 17:27,4/8/24 17:58,4/8/24 18:02,4/8/24 18:34,210,-89.175797,37.280226
536,IL,Unity,37.152059,-89.27302,4/9/24 0:13,4/8/24 17:27,4/8/24 17:58,4/8/24 18:02,4/8/24 18:33,210,-89.27302,37.152059
537,IL,Valier,38.017971,-89.043689,4/9/24 0:13,4/8/24 17:28,4/8/24 17:59,4/8/24 18:03,4/8/24 18:35,240,-89.043689,38.017971
538,IL,Pittsburg,37.776593,-88.850213,4/9/24 0:13,4/8/24 17:28,4/8/24 17:59,4/8/24 18:04,4/8/24 18:35,240,-88.850213,37.776593
539,IL,Kell,38.487552,-88.90001,4/9/24 0:13,4/8/24 17:29,4/8/24 18:00,4/8/24 18:04,4/8/24 18:35,180,-88.90001,38.487552
540,IL,Zeigler,37.9057,-89.053271,4/9/24 0:13,4/8/24 17:28,4/8/24 17:59,4/8/24 18:03,4/8/24 18:35,240,-89.053271,37.9057
541,IL,Louisville,38.769406,-88.506858,4/9/24 0:13,4/8/24 17:30,4/8/24 18:01,4/8/24 18:05,4/8/24 18:36,180,-88.506858,38.769406
542,IL,McClure,37.312582,-89.43156,4/9/24 0:13,4/8/24 17:27,4/8/24 17:58,4/8/24 18:02,4/8/24 18:33,240,-89.43156,37.312582
543,IL,Macedonia,38.054292,-88.7033,4/9/24 0:13,4/8/24 17:29,4/8/24 18:00,4/8/24 18:04,4/8/24 18:35,240,-88.7033,38.054292
544,IL,McLeansboro,38.090269,-88.538611,4/9/24 0:13,4/8/24 17:29,4/8/24 18:00,4/8/24 18:04,4/8/24 18:35,240,-88.538611,38.090269
545,IL,Makanda,37.620344,-89.23714,4/9/24 0:13,4/8/24 17:27,4/8/24 17:59,4/8/24 18:03,4/8/24 18:34,240,-89.23714,37.620344
546,IL,Marion,37.734445,-88.941164,4/9/24 0:13,4/8/24 17:28,4/8/24 17:59,4/8/24 18:03,4/8/24 18:35,240,-88.941164,37.734445
547,IL,Marissa,38.249667,-89.771413,4/9/24 0:13,4/8/24 17:27,4/8/24 17:59,4/8/24 18:02,4/8/24 18:34,120,-89.771413,38.249667
548,IL,Marshall,39.399532,-87.691168,4/9/24 0:13,4/8/24 17:32,4/8/24 18:04,4/8/24 18:06,4/8/24 18:38,150,-87.691168,39.399532
549,IL,Martinsville,39.338421,-87.880862,4/9/24 0:13,4/8/24 17:32,4/8/24 18:03,4/8/24 18:06,4/8/24 18:37,120,-87.880862,39.338421
550,IL,Mason,38.954328,-88.627068,4/9/24 0:13,4/8/24 17:30,4/8/24 18:02,4/8/24 18:04,4/8/24 18:36,120,-88.627068,38.954328
551,IL,Maunie,38.035177,-88.045277,4/9/24 0:13,4/8/24 17:30,4/8/24 18:01,4/8/24 18:05,4/8/24 18:36,210,-88.045277,38.035177
552,IL,Oblong,39.002301,-87.910526,4/9/24 0:13,4/8/24 17:31,4/8/24 18:02,4/8/24 18:06,4/8/24 18:37,180,-87.910526,39.002301
553,IL,Walnut Hill,38.477947,-89.044393,4/9/24 0:13,4/8/24 17:29,4/8/24 18:00,4/8/24 18:03,4/8/24 18:35,180,-89.044393,38.477947
554,IL,Odin,38.615868,-89.054077,4/9/24 0:13,4/8/24 17:29,4/8/24 18:01,4/8/24 18:03,4/8/24 18:35,150,-89.054077,38.615868
555,IL,Waltonville,38.216133,-89.038197,4/9/24 0:13,4/8/24 17:28,4/8/24 18:00,4/8/24 18:04,4/8/24 18:35,210,-89.038197,38.216133
556,IL,Wamac,38.490941,-89.14786,4/9/24 0:13,4/8/24 17:29,4/8/24 18:00,4/8/24 18:03,4/8/24 18:35,150,-89.14786,38.490941
557,IL,Kinmundy,38.772143,-88.853462,4/9/24 0:13,4/8/24 17:30,4/8/24 18:01,4/8/24 18:04,4/8/24 18:36,120,-88.853462,38.772143
558,IL,Okawville,38.434417,-89.547978,4/9/24 0:13,4/8/24 17:28,4/8/24 18:00,4/8/24 18:02,4/8/24 18:34,90,-89.547978,38.434417
559,IL,Prairie du Rocher,38.081708,-90.097565,4/9/24 0:13,4/8/24 17:27,4/8/24 17:59,4/8/24 18:01,4/8/24 18:33,90,-90.097565,38.081708
560,IL,Pulaski,37.220853,-89.206564,4/9/24 0:13,4/8/24 17:27,4/8/24 17:58,4/8/24 18:02,4/8/24 18:34,210,-89.206564,37.220853
561,IL,Radom,38.27984,-89.192113,4/9/24 0:13,4/8/24 17:28,4/8/24 18:00,4/8/24 18:03,4/8/24 18:35,180,-89.192113,38.27984
562,IL,Raleigh,37.824449,-88.531202,4/9/24 0:13,4/8/24 17:29,4/8/24 18:00,4/8/24 18:04,4/8/24 18:35,210,-88.531202,37.824449
563,IL,Red Bud,38.207482,-90.002389,4/9/24 0:13,4/8/24 17:27,4/8/24 18:00,4/8/24 18:01,4/8/24 18:33,60,-90.002389,38.207482
564,IL,Richview,38.375878,-89.180262,4/9/24 0:13,4/8/24 17:29,4/8/24 18:00,4/8/24 18:03,4/8/24 18:35,180,-89.180262,38.375878
565,IL,Ridgway,37.797884,-88.260616,4/9/24 0:13,4/8/24 17:29,4/8/24 18:01,4/8/24 18:04,4/8/24 18:36,210,-88.260616,37.797884
566,IL,Robinson,39.008567,-87.73344,4/9/24 0:13,4/8/24 17:31,4/8/24 18:03,4/8/24 18:06,4/8/24 18:37,210,-87.73344,39.008567
567,IL,Rockwood,37.837063,-89.691776,4/9/24 0:13,4/8/24 17:27,4/8/24 17:58,4/8/24 18:02,4/8/24 18:34,210,-89.691776,37.837063
568,IL,Old Shawneetown,37.697103,-88.138934,4/9/24 0:13,4/8/24 17:29,4/8/24 18:01,4/8/24 18:04,4/8/24 18:36,180,-88.138934,37.697103
569,IL,Olive Branch,37.183658,-89.349516,4/9/24 0:13,4/8/24 17:27,4/8/24 17:58,4/8/24 18:02,4/8/24 18:33,210,-89.349516,37.183658
570,IL,Olmsted,37.182358,-89.083976,4/9/24 0:13,4/8/24 17:27,4/8/24 17:59,4/8/24 18:02,4/8/24 18:34,180,-89.083976,37.182358
571,IL,Olney,38.728108,-88.084219,4/9/24 0:13,4/8/24 17:31,4/8/24 18:02,4/8/24 18:06,4/8/24 18:37,210,-88.084219,38.728108
572,IL,La Clede,38.880611,-88.712708,4/9/24 0:13,4/8/24 17:30,4/8/24 18:02,4/8/24 18:04,4/8/24 18:36,120,-88.712708,38.880611
573,IL,Watson,39.026137,-88.56856,4/9/24 0:13,4/8/24 17:30,4/8/24 18:02,4/8/24 18:04,4/8/24 18:36,90,-88.56856,39.026137
574,IL,Omaha,37.889747,-88.306413,4/9/24 0:13,4/8/24 17:29,4/8/24 18:00,4/8/24 18:04,4/8/24 18:36,210,-88.306413,37.889747
575,IL,Opdyke,38.258245,-88.78981,4/9/24 0:13,4/8/24 17:29,4/8/24 18:00,4/8/24 18:04,4/8/24 18:35,210,-88.78981,38.258245
576,IL,Wayne City,38.347644,-88.589407,4/9/24 0:13,4/8/24 17:29,4/8/24 18:00,4/8/24 18:04,4/8/24 18:36,210,-88.589407,38.347644
577,IL,Orient,37.917551,-88.978331,4/9/24 0:13,4/8/24 17:28,4/8/24 17:59,4/8/24 18:04,4/8/24 18:35,240,-88.978331,37.917551
578,IL,West City,37.996016,-88.948894,4/9/24 0:13,4/8/24 17:28,4/8/24 18:00,4/8/24 18:04,4/8/24 18:35,240,-88.948894,37.996016
579,IL,West Frankfort,37.899495,-88.930814,4/9/24 0:13,4/8/24 17:28,4/8/24 17:59,4/8/24 18:04,4/8/24 18:35,240,-88.930814,37.899495
580,IL,West Liberty,38.852381,-88.085242,4/9/24 0:13,4/8/24 17:31,4/8/24 18:02,4/8/24 18:06,4/8/24 18:37,210,-88.085242,38.852381
581,IL,Palestine,39.001621,-87.612584,4/9/24 0:13,4/8/24 17:32,4/8/24 18:03,4/8/24 18:06,4/8/24 18:38,210,-87.612584,39.001621
582,IL,West Salem,38.520096,-88.0093,4/9/24 0:13,4/8/24 17:30,4/8/24 18:01,4/8/24 18:06,4/8/24 18:37,240,-88.0093,38.520096
583,IL,West Union,39.213674,-87.666558,4/9/24 0:13,4/8/24 17:32,4/8/24 18:03,4/8/24 18:06,4/8/24 18:38,180,-87.666558,39.213674
584,IL,West York,39.168841,-87.67304,4/9/24 0:13,4/8/24 17:32,4/8/24 18:03,4/8/24 18:06,4/8/24 18:38,180,-87.67304,39.168841
585,IL,Wheeler,39.043042,-88.318765,4/9/24 0:13,4/8/24 17:31,4/8/24 18:02,4/8/24 18:05,4/8/24 18:37,150,-88.318765,39.043042
586,IL,Whiteash,37.783799,-88.93068,4/9/24 0:13,4/8/24 17:28,4/8/24 17:59,4/8/24 18:03,4/8/24 18:35,240,-88.93068,37.783799
587,IL,Parkersburg,38.589127,-88.056828,4/9/24 0:13,4/8/24 17:31,4/8/24 18:02,4/8/24 18:06,4/8/24 18:37,210,-88.056828,38.589127
588,IL,Lawrenceville,38.726345,-87.687289,4/9/24 0:13,4/8/24 17:31,4/8/24 18:02,4/8/24 18:06,4/8/24 18:37,240,-87.687289,38.726345
589,IL,Patoka,38.754069,-89.095818,4/9/24 0:13,4/8/24 17:29,4/8/24 18:01,4/8/24 18:03,4/8/24 18:35,60,-89.095818,38.754069
590,IL,Willisville,37.982804,-89.589787,4/9/24 0:13,4/8/24 17:27,4/8/24 17:59,4/8/24 18:02,4/8/24 18:34,210,-89.589787,37.982804
591,IL,Willow Hill,38.995838,-88.021817,4/9/24 0:13,4/8/24 17:31,4/8/24 18:02,4/8/24 18:06,4/8/24 18:37,180,-88.021817,38.995838
592,IL,Lenzburg,38.28635,-89.81778,4/9/24 0:13,4/8/24 17:27,4/8/24 18:00,4/8/24 18:01,4/8/24 18:34,90,-89.81778,38.28635
593,IN,Abington,39.733136,-84.967958,4/9/24 0:13,4/8/24 17:37,4/8/24 18:07,4/8/24 18:11,4/8/24 18:42,210,-84.967958,39.733136
594,IN,Adams,39.382503,-85.561348,4/9/24 0:13,4/8/24 17:35,4/8/24 18:06,4/8/24 18:10,4/8/24 18:41,210,-85.561348,39.382503
595,IN,Advance,39.995552,-86.619922,4/9/24 0:13,4/8/24 17:34,4/8/24 18:06,4/8/24 18:08,4/8/24 18:40,150,-86.619922,39.995552
596,IN,Albany,40.305954,-85.232191,4/9/24 0:13,4/8/24 17:37,4/8/24 18:07,4/8/24 18:11,4/8/24 18:42,210,-85.232191,40.305954
597,IN,Alexandria,40.262964,-85.673683,4/9/24 0:13,4/8/24 17:36,4/8/24 18:07,4/8/24 18:10,4/8/24 18:41,180,-85.673683,40.262964
598,IN,Alford,38.493188,-87.246199,4/9/24 0:13,4/8/24 17:32,4/8/24 18:03,4/8/24 18:07,4/8/24 18:38,210,-87.246199,38.493188
599,IN,Alfordsville,38.560296,-86.948557,4/9/24 0:13,4/8/24 17:32,4/8/24 18:03,4/8/24 18:07,4/8/24 18:38,210,-86.948557,38.560296
600,IN,Amity,39.427029,-86.003895,4/9/24 0:13,4/8/24 17:35,4/8/24 18:05,4/8/24 18:09,4/8/24 18:40,240,-86.003895,39.427029
601,IN,Amo,39.688878,-86.612692,4/9/24 0:13,4/8/24 17:34,4/8/24 18:05,4/8/24 18:08,4/8/24 18:39,210,-86.612692,39.688878
602,IN,Anderson,40.089766,-85.689449,4/9/24 0:13,4/8/24 17:36,4/8/24 18:07,4/8/24 18:10,4/8/24 18:41,210,-85.689449,40.089766
603,IN,Andersonville,39.50049,-85.285862,4/9/24 0:13,4/8/24 17:36,4/8/24 18:07,4/8/24 18:10,4/8/24 18:41,210,-85.285862,39.50049
604,IN,Antioch,40.227365,-86.505704,4/9/24 0:13,4/8/24 17:35,4/8/24 18:07,4/8/24 18:08,4/8/24 18:40,30,-86.505704,40.227365
605,IN,Arcadia,40.174173,-86.021036,4/9/24 0:13,4/8/24 17:35,4/8/24 18:07,4/8/24 18:10,4/8/24 18:41,180,-86.021036,40.174173
606,IN,Arlington,39.641107,-85.57711,4/9/24 0:13,4/8/24 17:35,4/8/24 18:06,4/8/24 18:10,4/8/24 18:41,210,-85.57711,39.641107
607,IN,Arthur,38.346716,-87.244333,4/9/24 0:13,4/8/24 17:31,4/8/24 18:03,4/8/24 18:06,4/8/24 18:37,210,-87.244333,38.346716
608,IN,Atlanta,40.213862,-86.027018,4/9/24 0:13,4/8/24 17:35,4/8/24 18:07,4/8/24 18:10,4/8/24 18:41,150,-86.027018,40.213862
609,IN,Austin,38.739986,-85.810587,4/9/24 0:13,4/8/24 17:34,4/8/24 18:06,4/8/24 18:08,4/8/24 18:40,90,-85.810587,38.739986
610,IN,Avoca,38.917196,-86.555642,4/9/24 0:13,4/8/24 17:33,4/8/24 18:04,4/8/24 18:08,4/8/24 18:39,210,-86.555642,38.917196
611,IN,Avon,39.760713,-86.394145,4/9/24 0:13,4/8/24 17:34,4/8/24 18:05,4/8/24 18:09,4/8/24 18:40,210,-86.394145,39.760713
612,IN,Azalia,39.092387,-85.844814,4/9/24 0:13,4/8/24 17:34,4/8/24 18:06,4/8/24 18:09,4/8/24 18:40,180,-85.844814,39.092387
613,IN,Bainbridge,39.7614,-86.81126,4/9/24 0:13,4/8/24 17:34,4/8/24 18:05,4/8/24 18:08,4/8/24 18:39,180,-86.81126,39.7614
614,IN,Bargersville,39.542637,-86.203247,4/9/24 0:13,4/8/24 17:34,4/8/24 18:05,4/8/24 18:09,4/8/24 18:40,210,-86.203247,39.542637
615,IN,Batesville,39.297698,-85.213455,4/9/24 0:13,4/8/24 17:36,4/8/24 18:07,4/8/24 18:10,4/8/24 18:41,180,-85.213455,39.297698
616,IN,Bedford,38.860167,-86.489503,4/9/24 0:13,4/8/24 17:33,4/8/24 18:04,4/8/24 18:08,4/8/24 18:39,210,-86.489503,38.860167
617,IN,Beech Grove,39.715669,-86.087018,4/9/24 0:13,4/8/24 17:35,4/8/24 18:06,4/8/24 18:09,4/8/24 18:40,210,-86.087018,39.715669
618,IN,Belleville,39.669731,-86.479447,4/9/24 0:13,4/8/24 17:34,4/8/24 18:05,4/8/24 18:09,4/8/24 18:40,210,-86.479447,39.669731
619,IN,Berne,40.657271,-84.955505,4/9/24 0:13,4/8/24 17:38,4/8/24 18:08,4/8/24 18:12,4/8/24 18:42,180,-84.955505,40.657271
620,IN,Bethany,39.533804,-86.378821,4/9/24 0:13,4/8/24 17:34,4/8/24 18:05,4/8/24 18:09,4/8/24 18:40,210,-86.378821,39.533804
621,IN,Bethel Village,39.151436,-85.925236,4/9/24 0:13,4/8/24 17:34,4/8/24 18:05,4/8/24 18:09,4/8/24 18:40,210,-85.925236,39.151436
622,IN,Bicknell,38.774312,-87.307797,4/9/24 0:13,4/8/24 17:32,4/8/24 18:03,4/8/24 18:07,4/8/24 18:38,240,-87.307797,38.774312
623,IN,Billtown,39.510075,-87.187269,4/9/24 0:13,4/8/24 17:33,4/8/24 18:04,4/8/24 18:07,4/8/24 18:39,180,-87.187269,39.510075
624,IN,Birdseye,38.312721,-86.698508,4/9/24 0:13,4/8/24 17:32,4/8/24 18:04,4/8/24 18:06,4/8/24 18:38,120,-86.698508,38.312721
625,IN,Blairsville,38.079461,-87.763101,4/9/24 0:13,4/8/24 17:30,4/8/24 18:02,4/8/24 18:05,4/8/24 18:37,210,-87.763101,38.079461
626,IN,Blanford,39.668118,-87.520592,4/9/24 0:13,4/8/24 17:33,4/8/24 18:05,4/8/24 18:06,4/8/24 18:38,60,-87.520592,39.668118
627,IN,Bloomfield,39.026134,-86.937364,4/9/24 0:13,4/8/24 17:33,4/8/24 18:04,4/8/24 18:08,4/8/24 18:38,240,-86.937364,39.026134
628,IN,Bloomingdale,39.830562,-87.250166,4/9/24 0:13,4/8/24 17:33,4/8/24 18:05,4/8/24 18:06,4/8/24 18:39,30,-87.250166,39.830562
629,IN,Blooming Grove,39.50893,-85.068561,4/9/24 0:13,4/8/24 17:36,4/8/24 18:07,4/8/24 18:11,4/8/24 18:41,180,-85.068561,39.50893
630,IN,Bloomington,39.1637,-86.524264,4/9/24 0:13,4/8/24 17:34,4/8/24 18:04,4/8/24 18:08,4/8/24 18:39,240,-86.524264,39.1637
631,IN,Blountsville,40.060255,-85.239836,4/9/24 0:13,4/8/24 17:36,4/8/24 18:07,4/8/24 18:11,4/8/24 18:42,210,-85.239836,40.060255
632,IN,Blue Ridge,39.521197,-85.637948,4/9/24 0:13,4/8/24 17:35,4/8/24 18:06,4/8/24 18:10,4/8/24 18:41,210,-85.637948,39.521197
633,IN,Bluffton,40.743479,-85.172111,4/9/24 0:13,4/8/24 17:37,4/8/24 18:08,4/8/24 18:11,4/8/24 18:42,150,-85.172111,40.743479
634,IN,Boggstown,39.562914,-85.912138,4/9/24 0:13,4/8/24 17:35,4/8/24 18:06,4/8/24 18:10,4/8/24 18:40,240,-85.912138,39.562914
635,IN,Boonville,38.04661,-87.291027,4/9/24 0:13,4/8/24 17:31,4/8/24 18:03,4/8/24 18:05,4/8/24 18:37,150,-87.291027,38.04661
636,IN,Boston,39.741167,-84.851792,4/9/24 0:13,4/8/24 17:37,4/8/24 18:08,4/8/24 18:11,4/8/24 18:42,210,-84.851792,39.741167
637,IN,Bowling Green,39.38016,-87.011493,4/9/24 0:13,4/8/24 17:33,4/8/24 18:04,4/8/24 18:08,4/8/24 18:39,210,-87.011493,39.38016
638,IN,Boxley,40.167783,-86.179067,4/9/24 0:13,4/8/24 17:35,4/8/24 18:06,4/8/24 18:09,4/8/24 18:40,150,-86.179067,40.167783
639,IN,Brazil,39.522449,-87.124479,4/9/24 0:13,4/8/24 17:33,4/8/24 18:04,4/8/24 18:07,4/8/24 18:39,180,-87.124479,39.522449
640,IN,Linn Grove,40.644952,-85.034704,4/9/24 0:13,4/8/24 17:37,4/8/24 18:08,4/8/24 18:11,4/8/24 18:42,180,-85.034704,40.644952
641,IN,Homer,39.578441,-85.5774,4/9/24 0:13,4/8/24 17:35,4/8/24 18:06,4/8/24 18:10,4/8/24 18:41,210,-85.5774,39.578441
642,IN,Linnsburg,40.000507,-86.798351,4/9/24 0:13,4/8/24 17:34,4/8/24 18:06,4/8/24 18:08,4/8/24 18:39,90,-86.798351,40.000507
643,IN,Linton,39.035534,-87.157128,4/9/24 0:13,4/8/24 17:32,4/8/24 18:03,4/8/24 18:07,4/8/24 18:38,240,-87.157128,39.035534
644,IN,Little York,38.699306,-85.904558,4/9/24 0:13,4/8/24 17:34,4/8/24 18:06,4/8/24 18:08,4/8/24 18:40,90,-85.904558,38.699306
645,IN,Livonia,38.550552,-86.276315,4/9/24 0:13,4/8/24 17:33,4/8/24 18:05,4/8/24 18:07,4/8/24 18:39,120,-86.276315,38.550552
646,IN,Lizton,39.883595,-86.542171,4/9/24 0:13,4/8/24 17:34,4/8/24 18:05,4/8/24 18:09,4/8/24 18:40,180,-86.542171,39.883595
647,IN,London,39.627394,-85.916714,4/9/24 0:13,4/8/24 17:35,4/8/24 18:06,4/8/24 18:10,4/8/24 18:40,240,-85.916714,39.627394
648,IN,Loogootee,38.675652,-86.914124,4/9/24 0:13,4/8/24 17:32,4/8/24 18:03,4/8/24 18:07,4/8/24 18:38,210,-86.914124,38.675652
649,IN,Losantville,40.023528,-85.183459,4/9/24 0:13,4/8/24 17:36,4/8/24 18:07,4/8/24 18:11,4/8/24 18:42,210,-85.183459,40.023528
650,IN,Lyford,39.646788,-87.369026,4/9/24 0:13,4/8/24 17:33,4/8/24 18:04,4/8/24 18:07,4/8/24 18:38,120,-87.369026,39.646788
651,IN,Lynn,40.048718,-84.942455,4/9/24 0:13,4/8/24 17:37,4/8/24 18:08,4/8/24 18:12,4/8/24 18:42,210,-84.942455,40.048718
652,IN,Lynnville,38.19907,-87.317486,4/9/24 0:13,4/8/24 17:31,4/8/24 18:03,4/8/24 18:06,4/8/24 18:37,180,-87.317486,38.19907
653,IN,Lyons,38.988368,-87.081166,4/9/24 0:13,4/8/24 17:32,4/8/24 18:03,4/8/24 18:07,4/8/24 18:38,240,-87.081166,38.988368
654,IN,McCordsville,39.897302,-85.91738,4/9/24 0:13,4/8/24 17:35,4/8/24 18:06,4/8/24 18:10,4/8/24 18:40,210,-85.91738,39.897302
655,IN,Mace,40.008957,-86.797814,4/9/24 0:13,4/8/24 17:34,4/8/24 18:06,4/8/24 18:08,4/8/24 18:39,90,-86.797814,40.008957
656,IN,Mackey,38.252045,-87.391015,4/9/24 0:13,4/8/24 17:31,4/8/24 18:02,4/8/24 18:06,4/8/24 18:37,210,-87.391015,38.252045
657,IN,Manilla,39.572711,-85.622005,4/9/24 0:13,4/8/24 17:35,4/8/24 18:06,4/8/24 18:10,4/8/24 18:41,210,-85.622005,39.572711
658,IN,Maples,41.010905,-84.96802,4/9/24 0:13,4/8/24 17:38,4/8/24 18:10,4/8/24 18:11,4/8/24 18:42,60,-84.96802,41.010905
659,IN,Marengo,38.371162,-86.342753,4/9/24 0:13,4/8/24 17:33,4/8/24 18:05,4/8/24 18:06,4/8/24 18:39,30,-86.342753,38.371162
660,IN,Mariah Hill,38.165468,-86.926903,4/9/24 0:13,4/8/24 17:32,4/8/24 18:04,4/8/24 18:06,4/8/24 18:38,120,-86.926903,38.165468
661,IN,Marietta,39.440623,-85.881077,4/9/24 0:13,4/8/24 17:35,4/8/24 18:06,4/8/24 18:10,4/8/24 18:40,210,-85.881077,39.440623
662,IN,Marion,40.549986,-85.66042,4/9/24 0:13,4/8/24 17:36,4/8/24 18:08,4/8/24 18:10,4/8/24 18:41,120,-85.66042,40.549986
663,IN,Marion,39.589618,-85.755854,4/9/24 0:13,4/8/24 17:35,4/8/24 18:06,4/8/24 18:10,4/8/24 18:41,240,-85.755854,39.589618
664,IN,Markle,40.829549,-85.342014,4/9/24 0:13,4/8/24 17:37,4/8/24 18:09,4/8/24 18:10,4/8/24 18:42,60,-85.342014,40.829549
665,IN,Markleville,39.976338,-85.616677,4/9/24 0:13,4/8/24 17:36,4/8/24 18:07,4/8/24 18:10,4/8/24 18:41,210,-85.616677,39.976338
666,IN,Marshall,39.84768,-87.186785,4/9/24 0:13,4/8/24 17:33,4/8/24 18:05,4/8/24 18:07,4/8/24 18:39,60,-87.186785,39.84768
667,IN,Martinsville,39.414711,-86.431699,4/9/24 0:13,4/8/24 17:34,4/8/24 18:05,4/8/24 18:09,4/8/24 18:39,240,-86.431699,39.414711
668,IN,Matthews,40.387457,-85.497778,4/9/24 0:13,4/8/24 17:36,4/8/24 18:07,4/8/24 18:11,4/8/24 18:41,180,-85.497778,40.387457
669,IN,Maxwell,39.855749,-85.768279,4/9/24 0:13,4/8/24 17:35,4/8/24 18:06,4/8/24 18:10,4/8/24 18:41,210,-85.768279,39.855749
670,IN,Mays,39.743743,-85.42885,4/9/24 0:13,4/8/24 17:36,4/8/24 18:07,4/8/24 18:11,4/8/24 18:41,210,-85.42885,39.743743
671,IN,Mecca,39.727098,-87.331653,4/9/24 0:13,4/8/24 17:33,4/8/24 18:05,4/8/24 18:07,4/8/24 18:38,90,-87.331653,39.727098
672,IN,Medora,38.824615,-86.171126,4/9/24 0:13,4/8/24 17:34,4/8/24 18:05,4/8/24 18:08,4/8/24 18:39,180,-86.171126,38.824615
673,IN,Melody Hill,38.024506,-87.513488,4/9/24 0:13,4/8/24 17:31,4/8/24 18:02,4/8/24 18:05,4/8/24 18:37,180,-87.513488,38.024506
674,IN,Meridian Hills,39.887392,-86.15671,4/9/24 0:13,4/8/24 17:35,4/8/24 18:06,4/8/24 18:09,4/8/24 18:40,210,-86.15671,39.887392
675,IN,Merom,39.055964,-87.56722,4/9/24 0:13,4/8/24 17:32,4/8/24 18:03,4/8/24 18:07,4/8/24 18:38,210,-87.56722,39.055964
676,IN,Metamora,39.448461,-85.137221,4/9/24 0:13,4/8/24 17:36,4/8/24 18:07,4/8/24 18:10,4/8/24 18:41,180,-85.137221,39.448461
677,IN,Middlebury,39.264887,-87.119306,4/9/24 0:13,4/8/24 17:33,4/8/24 18:04,4/8/24 18:07,4/8/24 18:38,210,-87.119306,39.264887
678,IN,Middletown,40.05945,-85.542782,4/9/24 0:13,4/8/24 17:36,4/8/24 18:07,4/8/24 18:11,4/8/24 18:41,210,-85.542782,40.05945
679,IN,Midland,39.118047,-87.189998,4/9/24 0:13,4/8/24 17:32,4/8/24 18:03,4/8/24 18:07,4/8/24 18:38,210,-87.189998,39.118047
680,IN,Mier,40.574806,-85.82323,4/9/24 0:13,4/8/24 17:36,4/8/24 18:08,4/8/24 18:09,4/8/24 18:41,60,-85.82323,40.574806
681,IN,Milan,39.125179,-85.120125,4/9/24 0:13,4/8/24 17:36,4/8/24 18:07,4/8/24 18:09,4/8/24 18:41,90,-85.120125,39.125179
682,IN,Milford,39.350389,-85.619728,4/9/24 0:13,4/8/24 17:35,4/8/24 18:06,4/8/24 18:10,4/8/24 18:41,210,-85.619728,39.350389
683,IN,Millgrove,40.404891,-85.277242,4/9/24 0:13,4/8/24 17:37,4/8/24 18:08,4/8/24 18:11,4/8/24 18:42,180,-85.277242,40.404891
684,IN,Millhousen,39.211988,-85.434165,4/9/24 0:13,4/8/24 17:35,4/8/24 18:06,4/8/24 18:10,4/8/24 18:41,180,-85.434165,39.211988
685,IN,Millville,39.927183,-85.252759,4/9/24 0:13,4/8/24 17:36,4/8/24 18:07,4/8/24 18:11,4/8/24 18:41,240,-85.252759,39.927183
686,IN,Milroy,39.498077,-85.467614,4/9/24 0:13,4/8/24 17:36,4/8/24 18:06,4/8/24 18:10,4/8/24 18:41,210,-85.467614,39.498077
687,IN,Milton,39.786503,-85.156199,4/9/24 0:13,4/8/24 17:36,4/8/24 18:07,4/8/24 18:11,4/8/24 18:42,210,-85.156199,39.786503
688,IN,Mineral Springs,39.132182,-85.860875,4/9/24 0:13,4/8/24 17:35,4/8/24 18:06,4/8/24 18:09,4/8/24 18:40,210,-85.860875,39.132182
689,IN,Mitchell,38.737092,-86.47522,4/9/24 0:13,4/8/24 17:33,4/8/24 18:04,4/8/24 18:08,4/8/24 18:39,180,-86.47522,38.737092
690,IN,Modoc,40.045471,-85.126237,4/9/24 0:13,4/8/24 17:37,4/8/24 18:07,4/8/24 18:11,4/8/24 18:42,210,-85.126237,40.045471
691,IN,Monroe,40.745109,-84.940859,4/9/24 0:13,4/8/24 17:38,4/8/24 18:09,4/8/24 18:12,4/8/24 18:42,180,-84.940859,40.745109
692,IN,Monroe City,38.614538,-87.353007,4/9/24 0:13,4/8/24 17:32,4/8/24 18:03,4/8/24 18:07,4/8/24 18:38,240,-87.353007,38.614538
693,IN,Monroeville,40.97358,-84.867678,4/9/24 0:13,4/8/24 17:38,4/8/24 18:09,4/8/24 18:11,4/8/24 18:43,120,-84.867678,40.97358
694,IN,Monrovia,39.587186,-86.475356,4/9/24 0:13,4/8/24 17:34,4/8/24 18:05,4/8/24 18:09,4/8/24 18:40,210,-86.475356,39.587186
695,IN,Montgomery,38.664775,-87.049356,4/9/24 0:13,4/8/24 17:32,4/8/24 18:03,4/8/24 18:07,4/8/24 18:38,210,-87.049356,38.664775
696,IN,Montpelier,40.549779,-85.287013,4/9/24 0:13,4/8/24 17:37,4/8/24 18:08,4/8/24 18:11,4/8/24 18:42,180,-85.287013,40.549779
697,IN,Mooreland,39.997414,-85.251348,4/9/24 0:13,4/8/24 17:36,4/8/24 18:07,4/8/24 18:11,4/8/24 18:42,210,-85.251348,39.997414
698,IN,Moores Hill,39.112937,-85.089058,4/9/24 0:13,4/8/24 17:36,4/8/24 18:08,4/8/24 18:09,4/8/24 18:41,90,-85.089058,39.112937
699,IN,Mooresville,39.602494,-86.368715,4/9/24 0:13,4/8/24 17:34,4/8/24 18:05,4/8/24 18:09,4/8/24 18:40,210,-86.368715,39.602494
700,IN,Morgantown,39.372891,-86.258605,4/9/24 0:13,4/8/24 17:34,4/8/24 18:05,4/8/24 18:09,4/8/24 18:40,240,-86.258605,39.372891
701,IN,Morris,39.2843,-85.168976,4/9/24 0:13,4/8/24 17:36,4/8/24 18:07,4/8/24 18:10,4/8/24 18:41,150,-85.168976,39.2843
702,IN,Morristown,39.692236,-85.729611,4/9/24 0:13,4/8/24 17:35,4/8/24 18:06,4/8/24 18:10,4/8/24 18:41,240,-85.729611,39.692236
703,IN,Mount Auburn,39.811331,-85.188457,4/9/24 0:13,4/8/24 17:36,4/8/24 18:07,4/8/24 18:11,4/8/24 18:41,210,-85.188457,39.811331
704,IN,Schnellville,38.345227,-86.756251,4/9/24 0:13,4/8/24 17:32,4/8/24 18:04,4/8/24 18:07,4/8/24 18:38,150,-86.756251,38.345227
705,IN,Universal,39.622521,-87.455307,4/9/24 0:13,4/8/24 17:33,4/8/24 18:04,4/8/24 18:07,4/8/24 18:38,120,-87.455307,39.622521
706,IN,Petersburg,38.492236,-87.280977,4/9/24 0:13,4/8/24 17:32,4/8/24 18:03,4/8/24 18:07,4/8/24 18:38,210,-87.280977,38.492236
707,IN,Bretzville,38.296467,-86.866278,4/9/24 0:13,4/8/24 17:32,4/8/24 18:04,4/8/24 18:06,4/8/24 18:38,150,-86.866278,38.296467
708,IN,Mount Carmel,39.407424,-84.875503,4/9/24 0:13,4/8/24 17:36,4/8/24 18:08,4/8/24 18:10,4/8/24 18:42,150,-84.875503,39.407424
709,IN,Fowlerton,40.409608,-85.572755,4/9/24 0:13,4/8/24 17:36,4/8/24 18:07,4/8/24 18:10,4/8/24 18:41,180,-85.572755,40.409608
710,IN,Cowan,40.105751,-85.390762,4/9/24 0:13,4/8/24 17:36,4/8/24 18:07,4/8/24 18:11,4/8/24 18:41,210,-85.390762,40.105751
711,IN,Foxcliff Estates,39.479404,-86.393733,4/9/24 0:13,4/8/24 17:34,4/8/24 18:05,4/8/24 18:09,4/8/24 18:40,210,-86.393733,39.479404
712,IN,Bridgeton,39.645472,-87.176386,4/9/24 0:13,4/8/24 17:33,4/8/24 18:04,4/8/24 18:07,4/8/24 18:39,150,-87.176386,39.645472
713,IN,Petersville,39.226305,-85.81918,4/9/24 0:13,4/8/24 17:35,4/8/24 18:06,4/8/24 18:09,4/8/24 18:40,210,-85.81918,39.226305
714,IN,Mount Etna,40.741123,-85.561901,4/9/24 0:13,4/8/24 17:37,4/8/24 18:09,4/8/24 18:09,4/8/24 18:41,30,-85.561901,40.741123
715,IN,Upland,40.462848,-85.500987,4/9/24 0:13,4/8/24 17:36,4/8/24 18:08,4/8/24 18:11,4/8/24 18:41,180,-85.500987,40.462848
716,IN,Craigville,40.776877,-85.091312,4/9/24 0:13,4/8/24 17:37,4/8/24 18:09,4/8/24 18:11,4/8/24 18:42,150,-85.091312,40.776877
717,IN,Scipio,39.074343,-85.715006,4/9/24 0:13,4/8/24 17:35,4/8/24 18:06,4/8/24 18:09,4/8/24 18:40,180,-85.715006,39.074343
718,IN,Bright,39.224924,-84.862326,4/9/24 0:13,4/8/24 17:36,4/8/24 18:08,4/8/24 18:10,4/8/24 18:41,90,-84.862326,39.224924
719,IN,Petroleum,40.612633,-85.152703,4/9/24 0:13,4/8/24 17:37,4/8/24 18:08,4/8/24 18:11,4/8/24 18:42,180,-85.152703,40.612633
720,IN,Mount Summit,40.003719,-85.386164,4/9/24 0:13,4/8/24 17:36,4/8/24 18:07,4/8/24 18:11,4/8/24 18:41,210,-85.386164,40.003719
721,IN,Scircleville,40.288064,-86.301556,4/9/24 0:13,4/8/24 17:35,4/8/24 18:07,4/8/24 18:09,4/8/24 18:40,90,-86.301556,40.288064
722,IN,Francisco,38.33268,-87.447985,4/9/24 0:13,4/8/24 17:31,4/8/24 18:02,4/8/24 18:06,4/8/24 18:37,210,-87.447985,38.33268
723,IN,Philadelphia,39.782295,-85.844038,4/9/24 0:13,4/8/24 17:35,4/8/24 18:06,4/8/24 18:10,4/8/24 18:41,210,-85.844038,39.782295
724,IN,Scotland,38.909139,-86.90475,4/9/24 0:13,4/8/24 17:33,4/8/24 18:04,4/8/24 18:08,4/8/24 18:38,240,-86.90475,38.909139
725,IN,Mount Vernon,37.936988,-87.895861,4/9/24 0:13,4/8/24 17:30,4/8/24 18:01,4/8/24 18:05,4/8/24 18:36,210,-87.895861,37.936988
726,IN,Crane,38.894296,-86.901258,4/9/24 0:13,4/8/24 17:33,4/8/24 18:04,4/8/24 18:08,4/8/24 18:38,240,-86.901258,38.894296
727,IN,Pierceville,39.133077,-85.17862,4/9/24 0:13,4/8/24 17:36,4/8/24 18:07,4/8/24 18:09,4/8/24 18:41,120,-85.17862,39.133077
728,IN,Vallonia,38.84851,-86.100727,4/9/24 0:13,4/8/24 17:34,4/8/24 18:05,4/8/24 18:08,4/8/24 18:40,180,-86.100727,38.84851
729,IN,Crawfordsville,40.041861,-86.897624,4/9/24 0:13,4/8/24 17:34,4/8/24 18:06,4/8/24 18:07,4/8/24 18:39,30,-86.897624,40.041861
730,IN,Scottsburg,38.684468,-85.782217,4/9/24 0:13,4/8/24 17:34,4/8/24 18:06,4/8/24 18:07,4/8/24 18:40,30,-85.782217,38.684468
731,IN,Franklin,39.494903,-86.05057,4/9/24 0:13,4/8/24 17:35,4/8/24 18:05,4/8/24 18:09,4/8/24 18:40,240,-86.05057,39.494903
732,IN,Seelyville,39.493352,-87.266916,4/9/24 0:13,4/8/24 17:33,4/8/24 18:04,4/8/24 18:07,4/8/24 18:38,180,-87.266916,39.493352
733,IN,Muncie,40.198826,-85.395059,4/9/24 0:13,4/8/24 17:36,4/8/24 18:07,4/8/24 18:11,4/8/24 18:41,210,-85.395059,40.198826
734,IN,Frankton,40.221014,-85.771983,4/9/24 0:13,4/8/24 17:36,4/8/24 18:07,4/8/24 18:10,4/8/24 18:41,180,-85.771983,40.221014
735,IN,Pittsboro,39.869804,-86.46388,4/9/24 0:13,4/8/24 17:34,4/8/24 18:05,4/8/24 18:09,4/8/24 18:40,180,-86.46388,39.869804
736,IN,Van Bibber Lake,39.729211,-86.929778,4/9/24 0:13,4/8/24 17:34,4/8/24 18:05,4/8/24 18:08,4/8/24 18:39,150,-86.929778,39.729211
737,IN,Fredericksburg,38.435541,-86.196183,4/9/24 0:13,4/8/24 17:33,4/8/24 18:06,4/8/24 18:06,4/8/24 18:39,30,-86.196183,38.435541
738,IN,Van Buren,40.615756,-85.503921,4/9/24 0:13,4/8/24 17:37,4/8/24 18:08,4/8/24 18:10,4/8/24 18:42,120,-85.503921,40.615756
739,IN,Brooklyn,39.544518,-86.369851,4/9/24 0:13,4/8/24 17:34,4/8/24 18:05,4/8/24 18:09,4/8/24 18:40,210,-86.369851,39.544518
740,IN,Selma,40.18662,-85.273838,4/9/24 0:13,4/8/24 17:37,4/8/24 18:07,4/8/24 18:11,4/8/24 18:42,210,-85.273838,40.18662
741,IN,Napoleon,39.204336,-85.327854,4/9/24 0:13,4/8/24 17:35,4/8/24 18:07,4/8/24 18:10,4/8/24 18:41,150,-85.327854,39.204336
742,IN,Freelandville,38.865345,-87.310217,4/9/24 0:13,4/8/24 17:32,4/8/24 18:03,4/8/24 18:07,4/8/24 18:38,240,-87.310217,38.865345
743,IN,Plainfield,39.693193,-86.371985,4/9/24 0:13,4/8/24 17:34,4/8/24 18:05,4/8/24 18:09,4/8/24 18:40,210,-86.371985,39.693193
744,IN,Crothersville,38.794455,-85.840023,4/9/24 0:13,4/8/24 17:34,4/8/24 18:06,4/8/24 18:08,4/8/24 18:40,120,-85.840023,38.794455
745,IN,Freetown,38.979118,-86.130113,4/9/24 0:13,4/8/24 17:34,4/8/24 18:05,4/8/24 18:09,4/8/24 18:40,210,-86.130113,38.979118
746,IN,Plainville,38.804832,-87.151481,4/9/24 0:13,4/8/24 17:32,4/8/24 18:03,4/8/24 18:07,4/8/24 18:38,240,-87.151481,38.804832
747,IN,Velpen,38.355288,-87.105504,4/9/24 0:13,4/8/24 17:32,4/8/24 18:03,4/8/24 18:06,4/8/24 18:38,180,-87.105504,38.355288
748,IN,Seymour,38.947516,-85.891285,4/9/24 0:13,4/8/24 17:34,4/8/24 18:06,4/8/24 18:09,4/8/24 18:40,180,-85.891285,38.947516
749,IN,Nashville,39.207733,-86.236172,4/9/24 0:13,4/8/24 17:34,4/8/24 18:05,4/8/24 18:09,4/8/24 18:40,210,-86.236172,39.207733
750,IN,Vera Cruz,40.701418,-85.079747,4/9/24 0:13,4/8/24 17:37,4/8/24 18:08,4/8/24 18:11,4/8/24 18:42,150,-85.079747,40.701418
751,IN,Vernon,38.985368,-85.610034,4/9/24 0:13,4/8/24 17:35,4/8/24 18:06,4/8/24 18:09,4/8/24 18:40,150,-85.610034,38.985368
752,IN,Versailles,39.06346,-85.256611,4/9/24 0:13,4/8/24 17:35,4/8/24 18:07,4/8/24 18:09,4/8/24 18:41,120,-85.256611,39.06346
753,IN,Vicksburg,39.08845,-87.197999,4/9/24 0:13,4/8/24 17:32,4/8/24 18:03,4/8/24 18:07,4/8/24 18:38,210,-87.197999,39.08845
754,IN,Vincennes,38.676621,-87.509956,4/9/24 0:13,4/8/24 17:31,4/8/24 18:02,4/8/24 18:07,4/8/24 18:37,240,-87.509956,38.676621
755,IN,Wadesville,38.103842,-87.790231,4/9/24 0:13,4/8/24 17:30,4/8/24 18:02,4/8/24 18:05,4/8/24 18:37,210,-87.790231,38.103842
756,IN,Waldron,39.453554,-85.662934,4/9/24 0:13,4/8/24 17:35,4/8/24 18:06,4/8/24 18:10,4/8/24 18:41,210,-85.662934,39.453554
757,IN,Walesboro,39.142497,-85.911877,4/9/24 0:13,4/8/24 17:34,4/8/24 18:05,4/8/24 18:09,4/8/24 18:40,210,-85.911877,39.142497
758,IN,Warren,40.687688,-85.42465,4/9/24 0:13,4/8/24 17:37,4/8/24 18:08,4/8/24 18:10,4/8/24 18:42,120,-85.42465,40.687688
759,IN,Warren Park,39.783228,-86.051685,4/9/24 0:13,4/8/24 17:35,4/8/24 18:06,4/8/24 18:10,4/8/24 18:40,210,-86.051685,39.783228
760,IN,Warrington,39.908746,-85.635281,4/9/24 0:13,4/8/24 17:36,4/8/24 18:06,4/8/24 18:10,4/8/24 18:41,210,-85.635281,39.908746
761,IN,Washington,38.658226,-87.160361,4/9/24 0:13,4/8/24 17:32,4/8/24 18:03,4/8/24 18:07,4/8/24 18:38,210,-87.160361,38.658226
762,IN,Waveland,39.877624,-87.045453,4/9/24 0:13,4/8/24 17:34,4/8/24 18:05,4/8/24 18:07,4/8/24 18:39,90,-87.045453,39.877624
763,IN,Waverly,39.551997,-86.262687,4/9/24 0:13,4/8/24 17:34,4/8/24 18:05,4/8/24 18:09,4/8/24 18:40,210,-86.262687,39.551997
764,IN,Waynesville,39.112935,-85.890993,4/9/24 0:13,4/8/24 17:34,4/8/24 18:06,4/8/24 18:09,4/8/24 18:40,210,-85.890993,39.112935
765,IN,Webster,39.90128,-84.942805,4/9/24 0:13,4/8/24 17:37,4/8/24 18:07,4/8/24 18:11,4/8/24 18:42,210,-84.942805,39.90128
766,IN,West Baden Springs,38.568162,-86.612285,4/9/24 0:13,4/8/24 17:33,4/8/24 18:04,4/8/24 18:07,4/8/24 18:39,180,-86.612285,38.568162
767,IN,West College Corner,39.569415,-84.818973,4/9/24 0:13,4/8/24 17:37,4/8/24 18:08,4/8/24 18:11,4/8/24 18:42,180,-84.818973,39.569415
768,IN,Westfield,40.03601,-86.15221,4/9/24 0:13,4/8/24 17:35,4/8/24 18:06,4/8/24 18:09,4/8/24 18:40,180,-86.15221,40.03601
769,IN,West Harrison,39.257846,-84.822336,4/9/24 0:13,4/8/24 17:36,4/8/24 18:08,4/8/24 18:10,4/8/24 18:42,90,-84.822336,39.257846
770,IN,Westphalia,38.863317,-87.221851,4/9/24 0:13,4/8/24 17:32,4/8/24 18:03,4/8/24 18:07,4/8/24 18:38,240,-87.221851,38.863317
771,IN,Westport,39.176306,-85.575029,4/9/24 0:13,4/8/24 17:35,4/8/24 18:06,4/8/24 18:09,4/8/24 18:40,180,-85.575029,39.176306
772,IN,West Terre Haute,39.463763,-87.4506,4/9/24 0:13,4/8/24 17:33,4/8/24 18:04,4/8/24 18:07,4/8/24 18:38,150,-87.4506,39.463763
773,IN,Westwood,39.917971,-85.41629,4/9/24 0:13,4/8/24 17:36,4/8/24 18:07,4/8/24 18:11,4/8/24 18:41,210,-85.41629,39.917971
774,IN,Wheatland,38.663223,-87.306253,4/9/24 0:13,4/8/24 17:32,4/8/24 18:03,4/8/24 18:07,4/8/24 18:38,240,-87.306253,38.663223
775,IN,Whiteland,39.555138,-86.074352,4/9/24 0:13,4/8/24 17:35,4/8/24 18:05,4/8/24 18:09,4/8/24 18:40,240,-86.074352,39.555138
776,IN,Whitestown,39.971672,-86.371739,4/9/24 0:13,4/8/24 17:35,4/8/24 18:06,4/8/24 18:09,4/8/24 18:40,180,-86.371739,39.971672
777,IN,Whitewater,39.944804,-84.831098,4/9/24 0:13,4/8/24 17:37,4/8/24 18:08,4/8/24 18:12,4/8/24 18:42,210,-84.831098,39.944804
778,IN,Wilkinson,39.885506,-85.608122,4/9/24 0:13,4/8/24 17:36,4/8/24 18:06,4/8/24 18:10,4/8/24 18:41,210,-85.608122,39.885506
779,IN,Williams,38.813343,-86.651316,4/9/24 0:13,4/8/24 17:33,4/8/24 18:04,4/8/24 18:08,4/8/24 18:39,210,-86.651316,38.813343
780,IN,Williamsburg,39.95106,-84.997196,4/9/24 0:13,4/8/24 17:37,4/8/24 18:07,4/8/24 18:11,4/8/24 18:42,210,-84.997196,39.95106
781,IN,Williams Creek,39.900153,-86.150243,4/9/24 0:13,4/8/24 17:35,4/8/24 18:06,4/8/24 18:09,4/8/24 18:40,210,-86.150243,39.900153
782,IN,Willow Branch,39.876827,-85.684882,4/9/24 0:13,4/8/24 17:36,4/8/24 18:06,4/8/24 18:10,4/8/24 18:41,210,-85.684882,39.876827
783,IN,Winchester,40.172099,-84.977051,4/9/24 0:13,4/8/24 17:37,4/8/24 18:08,4/8/24 18:12,4/8/24 18:42,210,-84.977051,40.172099
784,IN,Windfall City,40.361821,-85.958321,4/9/24 0:13,4/8/24 17:36,4/8/24 18:07,4/8/24 18:10,4/8/24 18:41,120,-85.958321,40.361821
785,IN,Windsor,40.155988,-85.214592,4/9/24 0:13,4/8/24 17:37,4/8/24 18:07,4/8/24 18:11,4/8/24 18:42,210,-85.214592,40.155988
786,IN,Winslow,38.382675,-87.212153,4/9/24 0:13,4/8/24 17:32,4/8/24 18:03,4/8/24 18:06,4/8/24 18:38,210,-87.212153,38.382675
787,IN,Woodlawn Heights,40.118512,-85.696857,4/9/24 0:13,4/8/24 17:36,4/8/24 18:07,4/8/24 18:10,4/8/24 18:41,210,-85.696857,40.118512
788,IN,Worthington,39.118379,-86.979796,4/9/24 0:13,4/8/24 17:33,4/8/24 18:04,4/8/24 18:08,4/8/24 18:38,240,-86.979796,39.118379
789,IN,Wynnedale,39.832484,-86.200237,4/9/24 0:13,4/8/24 17:35,4/8/24 18:06,4/8/24 18:09,4/8/24 18:40,210,-86.200237,39.832484
790,IN,Yorktown,40.181891,-85.508155,4/9/24 0:13,4/8/24 17:36,4/8/24 18:07,4/8/24 18:11,4/8/24 18:41,210,-85.508155,40.181891
791,IN,Zionsville,39.99153,-86.32175,4/9/24 0:13,4/8/24 17:35,4/8/24 18:06,4/8/24 18:09,4/8/24 18:40,180,-86.32175,39.99153
792,IN,Hope,39.299263,-85.765976,4/9/24 0:13,4/8/24 17:35,4/8/24 18:06,4/8/24 18:10,4/8/24 18:40,210,-85.765976,39.299263
793,IN,Pleasant Mills,40.776613,-84.841758,4/9/24 0:13,4/8/24 17:38,4/8/24 18:09,4/8/24 18:12,4/8/24 18:43,180,-84.841758,40.776613
794,IN,Hortonville,40.088907,-86.156409,4/9/24 0:13,4/8/24 17:35,4/8/24 18:06,4/8/24 18:09,4/8/24 18:40,180,-86.156409,40.088907
